$GPRMC,051214.00,A,2730.40078,S,15254.66302,E,6.738,111.71,240420,,,A*76
$GPVTG,111.71,T,,M,6.738,N,12.479,K,A*09
$GPGGA,051214.00,2730.40078,S,15254.66302,E,1,10,0.81,34.2,M,38.5,M,,*7A
$GPGSA,A,3,22,31,03,01,26,04,14,16,11,32,,,1.57,0.81,1.35*0C
$GPGSV,3,1,12,01,46,298,40,03,48,212,36,04,30,250,35,09,02,266,*78
$GPGSV,3,2,12,11,18,325,26,14,25,123,34,16,24,032,35,22,77,198,35*77
$GPGSV,3,3,12,26,37,064,41,31,49,141,44,32,09,107,32,50,47,314,35*7F
$GPGLL,2730.40078,S,15254.66302,E,051214.00,A,A*7C
$GSENSOR,20,926,430
$GPRMC,051215.00,A,2730.40130,S,15254.66578,E,10.053,103.37,240420,,,A*4D
$GPVTG,103.37,T,,M,10.053,N,18.619,K,A*3B
$GPGGA,051215.00,2730.40130,S,15254.66578,E,1,10,0.81,34.6,M,38.5,M,,*79
$GPGSA,A,3,22,31,03,01,26,04,14,16,11,32,,,1.57,0.81,1.35*0C
$GPGSV,3,1,12,01,46,298,40,03,48,212,29,04,30,250,37,09,02,266,*74
$GPGSV,3,2,12,11,18,325,27,14,25,123,35,16,24,032,35,22,77,198,39*7B
$GPGSV,3,3,12,26,37,064,36,31,49,141,34,32,09,107,36,50,47,314,38*71
$GPGLL,2730.40130,S,15254.66578,E,051215.00,A,A*7B
$GSENSOR,26,968,16
$GPRMC,051216.00,A,2730.40184,S,15254.66943,E,12.832,100.47,240420,,,A*4C
$GPVTG,100.47,T,,M,12.832,N,23.765,K,A*30
$GPGGA,051216.00,2730.40184,S,15254.66943,E,1,10,0.81,35.1,M,38.5,M,,*77
$GPGSA,A,3,22,31,03,01,26,04,14,16,11,32,,,1.57,0.81,1.35*0C
$GPGSV,3,1,12,01,46,298,41,03,48,212,33,04,30,250,38,09,02,266,*71
$GPGSV,3,2,12,11,18,325,32,14,25,123,27,16,24,032,30,22,77,198,40*77
$GPGSV,3,3,12,26,37,064,40,31,49,141,34,32,09,107,39,50,47,314,39*7E
$GPGLL,2730.40184,S,15254.66943,E,051216.00,A,A*73
$GSENSOR,-38,1016,304
$GPRMC,051217.00,A,2730.40246,S,15254.67382,E,14.817,99.43,240420,,,A*72
$GPVTG,99.43,T,,M,14.817,N,27.441,K,A*05
$GPGGA,051217.00,2730.40246,S,15254.67382,E,1,10,0.81,35.5,M,38.5,M,,*79
$GPGSA,A,3,22,31,03,01,26,04,14,16,11,32,,,1.57,0.81,1.35*0C
$GPGSV,4,1,13,01,46,298,42,03,48,212,34,04,30,250,39,09,02,266,*72
$GPGSV,4,2,13,11,18,325,29,14,25,123,29,16,24,032,38,22,77,198,40*7D
$GPGSV,4,3,13,23,,,32,26,37,064,42,31,49,141,37,32,09,107,41*4C
$GPGSV,4,4,13,50,47,314,38*40
$GPGLL,2730.40246,S,15254.67382,E,051217.00,A,A*79
$GSENSOR,-32,956,116
$GPRMC,051218.00,A,2730.40314,S,15254.67886,E,17.055,99.03,240420,,,A*7D
$GPVTG,99.03,T,,M,17.055,N,31.587,K,A*00
$GPGGA,051218.00,2730.40314,S,15254.67886,E,1,10,0.81,35.8,M,38.5,M,,*72
$GPGSA,A,3,22,31,03,01,26,04,14,16,11,32,,,1.57,0.81,1.35*0C
$GPGSV,4,1,13,01,46,298,42,03,48,212,34,04,30,250,38,09,02,266,*73
$GPGSV,4,2,13,11,18,325,32,14,25,123,28,16,24,032,36,22,77,198,43*7B
$GPGSV,4,3,13,23,,,32,26,37,064,42,31,49,141,39,32,09,107,40*43
$GPGSV,4,4,13,50,47,314,38*40
$GPGLL,2730.40314,S,15254.67886,E,051218.00,A,A*7F
$GSENSOR,114,934,54
$GPRMC,051219.00,A,2730.40392,S,15254.68461,E,19.311,99.02,240420,,,A*74
$GPVTG,99.02,T,,M,19.311,N,35.763,K,A*00
$GPGGA,051219.00,2730.40392,S,15254.68461,E,1,10,0.81,36.2,M,38.5,M,,*7E
$GPGSA,A,3,22,31,03,01,26,04,14,16,11,32,,,1.57,0.81,1.35*0C
$GPGSV,4,1,13,01,46,298,40,03,48,212,31,04,30,250,38,09,02,266,*74
$GPGSV,4,2,13,11,18,325,28,14,25,123,32,16,24,032,36,22,77,198,42*7A
$GPGSV,4,3,13,23,,,31,26,37,064,42,31,49,141,39,32,09,107,40*40
$GPGSV,4,4,13,50,47,314,39*41
$GPGLL,2730.40392,S,15254.68461,E,051219.00,A,A*7A
$GSENSOR,46,1088,312
$GPRMC,051220.00,A,2730.40486,S,15254.69111,E,21.887,99.82,240420,,,A*78
$GPVTG,99.82,T,,M,21.887,N,40.535,K,A*04
$GPGGA,051220.00,2730.40486,S,15254.69111,E,1,10,0.81,36.5,M,38.5,M,,*72
$GPGSA,A,3,22,31,03,01,26,04,14,16,11,32,,,1.57,0.81,1.35*0C
$GPGSV,4,1,13,01,46,298,42,03,48,212,35,04,30,250,38,09,02,266,*72
$GPGSV,4,2,13,11,18,325,27,14,25,123,31,16,24,032,36,22,77,198,43*77
$GPGSV,4,3,13,23,,,31,26,37,064,41,31,49,141,38,32,09,107,34*41
$GPGSV,4,4,13,50,47,314,37*4F
$GPGLL,2730.40486,S,15254.69111,E,051220.00,A,A*71
$GSENSOR,-12,988,204
$GPRMC,051221.00,A,2730.40603,S,15254.69835,E,24.361,100.22,240420,,,A*44
$GPVTG,100.22,T,,M,24.361,N,45.116,K,A*39
$GPGGA,051221.00,2730.40603,S,15254.69835,E,1,10,0.81,36.4,M,38.5,M,,*72
$GPGSA,A,3,22,31,03,01,26,04,14,16,11,32,,,1.57,0.81,1.35*0C
$GPGSV,4,1,13,01,46,298,38,03,48,212,35,04,30,250,36,09,02,266,*71
$GPGSV,4,2,13,11,18,325,32,14,25,123,31,16,24,032,29,22,77,198,42*7C
$GPGSV,4,3,13,23,,,29,26,37,064,38,31,49,141,35,32,09,107,31*4E
$GPGSV,4,4,13,50,47,314,37*4F
$GPGLL,2730.40603,S,15254.69835,E,051221.00,A,A*70
$GSENSOR,0,1002,-328
$GPRMC,051222.00,A,2730.40721,S,15254.70598,E,25.099,99.91,240420,,,A*78
$GPVTG,99.91,T,,M,25.099,N,46.483,K,A*0F
$GPGGA,051222.00,2730.40721,S,15254.70598,E,1,10,0.81,36.4,M,38.5,M,,*72
$GPGSA,A,3,22,31,03,01,26,04,14,16,11,32,,,1.57,0.81,1.35*0C
$GPGSV,4,1,13,01,46,298,39,03,48,212,39,04,30,250,38,09,02,266,*72
$GPGSV,4,2,13,11,18,325,26,14,25,123,31,16,24,032,29,22,77,198,42*79
$GPGSV,4,3,13,23,,,28,26,37,064,39,31,49,141,35,32,09,107,39*46
$GPGSV,4,4,13,50,47,314,38*40
$GPGLL,2730.40721,S,15254.70598,E,051222.00,A,A*70
$GSENSOR,80,702,100
$GPRMC,051223.00,A,2730.40838,S,15254.71373,E,25.338,99.49,240420,,,A*71
$GPVTG,99.49,T,,M,25.338,N,46.926,K,A*00
$GPGGA,051223.00,2730.40838,S,15254.71373,E,1,10,0.81,36.2,M,38.5,M,,*70
$GPGSA,A,3,22,31,03,01,26,04,14,16,11,32,,,1.57,0.81,1.35*0C
$GPGSV,4,1,13,01,46,298,39,03,48,212,41,04,30,250,37,09,02,266,*72
$GPGSV,4,2,13,11,18,325,26,14,25,123,31,16,24,032,37,22,77,198,42*76
$GPGSV,4,3,13,23,,,27,26,37,064,39,31,49,141,32,32,09,107,38*4F
$GPGSV,4,4,13,50,47,314,39*41
$GPGLL,2730.40838,S,15254.71373,E,051223.00,A,A*74
$GSENSOR,-78,936,38
$GPRMC,051224.00,A,2730.40953,S,15254.72154,E,25.514,99.21,240420,,,A*78
$GPVTG,99.21,T,,M,25.514,N,47.252,K,A*0F
$GPGGA,051224.00,2730.40953,S,15254.72154,E,1,10,0.81,35.6,M,38.5,M,,*78
$GPGSA,A,3,22,31,03,01,26,04,14,16,11,32,,,1.57,0.81,1.35*0C
$GPGSV,4,1,13,01,46,298,41,03,48,212,38,04,30,250,37,09,02,266,*73
$GPGSV,4,2,13,11,18,325,28,14,25,123,32,16,24,032,38,22,77,198,43*75
$GPGSV,4,3,13,23,,,25,26,37,064,39,31,49,141,34,32,09,107,37*44
$GPGSV,4,4,13,50,47,314,39*41
$GPGLL,2730.40953,S,15254.72154,E,051224.00,A,A*7B
$GSENSOR,224,1032,-108
$GPRMC,051225.00,A,2730.41067,S,15254.72947,E,25.896,99.18,240420,,,A*71
$GPVTG,99.18,T,,M,25.896,N,47.960,K,A*08
$GPGGA,051225.00,2730.41067,S,15254.72947,E,1,10,0.81,35.0,M,38.5,M,,*7A
$GPGSA,A,3,22,31,03,01,26,04,14,16,11,32,,,1.57,0.81,1.35*0C
$GPGSV,4,1,13,01,46,298,41,03,48,212,39,04,30,250,38,09,02,266,*7D
$GPGSV,4,2,13,11,18,325,29,14,25,123,33,16,24,032,39,22,77,198,45*72
$GPGSV,4,3,13,23,,,24,26,37,064,42,31,49,141,37,32,09,107,38*45
$GPGSV,4,4,13,50,47,314,39*41
$GPGLL,2730.41067,S,15254.72947,E,051225.00,A,A*7F
$GSENSOR,124,1142,-64
$GPRMC,051226.00,A,2730.41178,S,15254.73761,E,26.571,98.76,240420,,,A*78
$GPVTG,98.76,T,,M,26.571,N,49.210,K,A*04
$GPGGA,051226.00,2730.41178,S,15254.73761,E,1,10,0.81,34.2,M,38.5,M,,*7E
$GPGSA,A,3,22,31,03,01,26,04,14,16,11,32,,,1.57,0.81,1.35*0C
$GPGSV,4,1,13,01,46,298,39,03,48,212,39,04,30,250,38,09,02,266,*72
$GPGSV,4,2,13,11,18,325,28,14,25,123,36,16,24,032,39,22,77,198,46*75
$GPGSV,4,3,13,23,,,23,26,37,064,37,31,49,141,37,32,09,107,35*4D
$GPGSV,4,4,13,50,47,314,39*41
$GPGLL,2730.41178,S,15254.73761,E,051226.00,A,A*78
$GSENSOR,-148,1076,40
$GPRMC,051227.00,A,2730.41299,S,15254.74597,E,27.514,99.38,240420,,,A*70
$GPVTG,99.38,T,,M,27.514,N,50.956,K,A*0C
$GPGGA,051227.00,2730.41299,S,15254.74597,E,1,10,0.81,33.0,M,38.5,M,,*7A
$GPGSA,A,3,22,31,03,01,26,04,14,16,11,32,,,1.57,0.81,1.35*0C
$GPGSV,4,1,13,01,46,298,41,03,48,212,42,04,30,250,36,09,02,266,*7F
$GPGSV,4,2,13,11,18,325,29,14,25,123,34,16,24,032,39,22,77,198,43*73
$GPGSV,4,3,13,23,,,21,26,37,064,40,31,49,141,36,32,09,107,35*4E
$GPGSV,4,4,13,50,47,314,39*41
$GPGLL,2730.41299,S,15254.74597,E,051227.00,A,A*79
$GSENSOR,118,960,-150
$GPRMC,051228.00,A,2730.41431,S,15254.75465,E,28.594,99.75,240420,,,A*78
$GPVTG,99.75,T,,M,28.594,N,52.956,K,A*00
$GPGGA,051228.00,2730.41431,S,15254.75465,E,1,10,0.81,31.5,M,38.5,M,,*7B
$GPGSA,A,3,22,31,03,01,26,04,14,16,11,32,,,1.57,0.81,1.35*0C
$GPGSV,4,1,13,01,46,298,40,03,48,212,41,04,30,250,36,09,02,266,*7D
$GPGSV,4,2,13,11,18,325,28,14,25,123,28,16,24,032,37,22,77,198,42*70
$GPGSV,4,3,13,23,,,20,26,37,064,33,31,49,141,37,32,09,107,35*4A
$GPGSV,4,4,13,50,47,314,36*4E
$GPGLL,2730.41431,S,15254.75465,E,051228.00,A,A*7F
$GSENSOR,300,904,-22
$GPRMC,051229.00,A,2730.41569,S,15254.76349,E,28.856,99.85,240420,,,A*73
$GPVTG,99.85,T,,M,28.856,N,53.441,K,A*06
$GPGGA,051229.00,2730.41569,S,15254.76349,E,1,09,0.85,30.0,M,38.5,M,,*74
$GPGSA,A,3,22,31,03,01,26,04,16,11,32,,,,1.63,0.85,1.39*06
$GPGSV,3,1,12,01,46,298,42,03,48,212,41,04,30,250,35,09,02,266,*7A
$GPGSV,3,2,12,11,18,325,27,14,25,123,32,16,24,032,33,22,77,198,44*70
$GPGSV,3,3,12,26,37,064,40,31,49,141,36,32,09,107,33,50,47,314,38*77
$GPGLL,2730.41569,S,15254.76349,E,051229.00,A,A*78
$GSENSOR,8,1058,146
$GPRMC,051229.00,A,2730.41569,S,15254.76349,E,28.856,99.85,240420,,,A*73
$GPVTG,99.85,T,,M,28.856,N,53.441,K,A*06
$GPGGA,051229.00,2730.41569,S,15254.76349,E,1,09,0.85,30.0,M,38.5,M,,*74
$GPGSA,A,3,22,31,03,01,26,04,16,11,32,,,,1.63,0.85,1.39*06
$GPGSV,3,1,12,01,46,298,42,03,48,212,41,04,30,250,35,09,02,266,*7A
$GPGSV,3,2,12,11,18,325,27,14,25,123,32,16,24,032,33,22,77,198,44*70
$GPGSV,3,3,12,26,37,064,40,31,49,141,36,32,09,107,33,50,47,314,38*77
$GPGLL,2730.41569,S,15254.76349,E,051229.00,A,A*78
$GSENSOR,8,1058,146
$GPRMC,051230.00,A,2730.41708,S,15254.77237,E,28.906,100.34,240420,,,A*48
$GPVTG,100.34,T,,M,28.906,N,53.534,K,A*3A
$GPGGA,051230.00,2730.41708,S,15254.77237,E,1,10,0.81,28.7,M,38.5,M,,*72
$GPGSA,A,3,22,31,03,01,26,04,14,16,11,32,,,1.57,0.81,1.35*0C
$GPGSV,3,1,12,01,46,298,34,03,48,212,38,04,30,250,37,09,02,266,*77
$GPGSV,3,2,12,11,18,325,31,14,25,123,32,16,24,032,31,22,77,198,45*74
$GPGSV,3,3,12,26,37,064,37,31,49,141,36,32,09,107,39,50,47,314,32*77
$GPGLL,2730.41708,S,15254.77237,E,051230.00,A,A*7C
$GSENSOR,-238,1074,156
$GPRMC,051231.00,A,2730.41856,S,15254.78136,E,29.361,101.06,240420,,,A*4A
$GPVTG,101.06,T,,M,29.361,N,54.376,K,A*37
$GPGGA,051231.00,2730.41856,S,15254.78136,E,1,10,0.81,27.9,M,38.5,M,,*7B
$GPGSA,A,3,22,31,03,01,26,04,14,16,11,32,,,1.57,0.81,1.35*0C
$GPGSV,3,1,12,01,46,298,41,03,49,212,38,04,30,250,27,09,02,266,*75
$GPGSV,3,2,12,11,18,325,25,14,25,123,32,16,24,032,24,22,77,198,43*73
$GPGSV,3,3,12,26,37,064,37,31,49,141,32,32,09,107,36,50,47,314,38*76
$GPGLL,2730.41856,S,15254.78136,E,051231.00,A,A*74
$GSENSOR,198,698,104
$GPRMC,051232.00,A,2730.41998,S,15254.79043,E,29.314,99.65,240420,,,A*7F
$GPVTG,99.65,T,,M,29.314,N,54.290,K,A*09
$GPGGA,051232.00,2730.41998,S,15254.79043,E,1,10,0.81,27.1,M,38.5,M,,*71
$GPGSA,A,3,22,31,03,01,26,04,14,16,11,32,,,1.57,0.81,1.35*0C
$GPGSV,3,1,12,01,46,298,40,03,49,212,40,04,30,249,36,09,02,266,*73
$GPGSV,3,2,12,11,18,325,23,14,25,123,32,16,24,032,35,22,77,198,43*75
$GPGSV,3,3,12,26,37,064,30,31,49,141,36,32,09,107,28,50,47,314,34*76
$GPGLL,2730.41998,S,15254.79043,E,051232.00,A,A*76
$GSENSOR,206,984,-80
$GPRMC,051233.00,A,2730.42125,S,15254.79957,E,29.326,99.06,240420,,,A*7B
$GPVTG,99.06,T,,M,29.326,N,54.312,K,A*06
$GPGGA,051233.00,2730.42125,S,15254.79957,E,1,09,0.84,26.9,M,38.5,M,,*75
$GPGSA,A,3,22,31,03,01,26,04,14,16,32,,,,1.65,0.84,1.42*08
$GPGSV,3,1,12,01,46,298,40,03,49,212,35,04,30,249,38,09,02,266,*7F
$GPGSV,3,2,12,11,18,325,,14,25,123,33,16,24,032,35,22,77,198,43*75
$GPGSV,3,3,12,26,37,064,40,31,49,141,35,32,09,107,27,50,47,314,39*70
$GPGLL,2730.42125,S,15254.79957,E,051233.00,A,A*76
$GSENSOR,-30,946,-74
$GPRMC,051234.00,A,2730.42258,S,15254.80859,E,28.924,99.88,240420,,,A*73
$GPVTG,99.88,T,,M,28.924,N,53.567,K,A*0A
$GPGGA,051234.00,2730.42258,S,15254.80859,E,1,10,0.81,27.0,M,38.5,M,,*77
$GPGSA,A,3,22,31,03,01,26,04,14,16,11,32,,,1.57,0.81,1.35*0C
$GPGSV,3,1,12,01,46,298,40,03,49,212,38,04,30,249,38,09,02,266,*72
$GPGSV,3,2,12,11,18,325,28,14,25,123,33,16,24,032,33,22,77,198,43*79
$GPGSV,3,3,12,26,37,064,40,31,49,141,36,32,09,107,33,50,47,314,39*76
$GPGLL,2730.42258,S,15254.80859,E,051234.00,A,A*71
$GSENSOR,-62,1028,58
$GPRMC,051235.00,A,2730.42392,S,15254.81742,E,28.429,100.28,240420,,,A*4A
$GPVTG,100.28,T,,M,28.429,N,52.651,K,A*36
$GPGGA,051235.00,2730.42392,S,15254.81742,E,1,09,0.84,27.3,M,38.5,M,,*7B
$GPGSA,A,3,22,31,03,01,26,04,14,16,32,,,,1.65,0.84,1.42*08
$GPGSV,3,1,12,01,46,298,40,03,49,212,39,04,30,249,38,09,02,266,*73
$GPGSV,3,2,12,11,18,325,22,14,25,123,21,16,24,032,36,22,77,198,43*75
$GPGSV,3,3,12,26,37,064,39,31,49,141,37,32,09,107,33,50,47,314,39*79
$GPGLL,2730.42392,S,15254.81742,E,051235.00,A,A*73
$GSENSOR,6,1010,-94
$GPRMC,051236.00,A,2730.42533,S,15254.82607,E,27.942,100.71,240420,,,A*44
$GPVTG,100.71,T,,M,27.942,N,51.748,K,A*3F
$GPGGA,051236.00,2730.42533,S,15254.82607,E,1,10,0.81,27.4,M,38.5,M,,*7C
$GPGSA,A,3,22,31,03,01,26,04,14,16,11,32,,,1.57,0.81,1.35*0C
$GPGSV,3,1,12,01,46,298,39,03,49,212,38,04,30,249,39,09,02,266,*7D
$GPGSV,3,2,12,11,18,325,31,14,25,123,23,16,24,032,40,22,77,198,44*73
$GPGSV,3,3,12,26,37,064,40,31,49,141,32,32,09,107,38,50,47,314,39*79
$GPGLL,2730.42533,S,15254.82607,E,051236.00,A,A*7E
$GSENSOR,12,1126,-44
$GPRMC,051237.00,A,2730.42667,S,15254.83454,E,27.491,99.82,240420,,,A*7C
$GPVTG,99.82,T,,M,27.491,N,50.913,K,A*00
$GPGGA,051237.00,2730.42667,S,15254.83454,E,1,10,0.81,27.5,M,38.5,M,,*7B
$GPGSA,A,3,22,31,03,01,26,04,14,16,11,32,,,1.57,0.81,1.35*0C
$GPGSV,3,1,12,01,46,298,33,03,49,212,27,04,30,249,34,09,02,266,*74
$GPGSV,3,2,12,11,18,325,32,14,25,123,24,16,24,032,30,22,77,198,43*77
$GPGSV,3,3,12,26,37,064,43,31,49,141,27,32,09,107,40,50,47,314,41*7E
$GPGLL,2730.42667,S,15254.83454,E,051237.00,A,A*78
$GSENSOR,0,1194,102
$GPRMC,051238.00,A,2730.42789,S,15254.84291,E,27.263,99.78,240420,,,A*74
$GPVTG,99.78,T,,M,27.263,N,50.492,K,A*0A
$GPGGA,051238.00,2730.42789,S,15254.84291,E,1,10,0.81,27.8,M,38.5,M,,*70
$GPGSA,A,3,22,31,03,01,26,04,14,16,11,32,,,1.57,0.81,1.35*0C
$GPGSV,3,1,12,01,46,298,41,03,49,212,27,04,30,249,23,09,02,266,*77
$GPGSV,3,2,12,11,18,325,31,14,25,123,29,16,24,032,29,22,77,198,42*70
$GPGSV,3,3,12,26,37,064,36,31,49,141,36,32,09,107,39,50,47,314,39*7D
$GPGLL,2730.42789,S,15254.84291,E,051238.00,A,A*7E
$GSENSOR,58,1142,90
$GPRMC,051239.00,A,2730.42914,S,15254.85124,E,26.881,99.50,240420,,,A*7E
$GPVTG,99.50,T,,M,26.881,N,49.784,K,A*0B
$GPGGA,051239.00,2730.42914,S,15254.85124,E,1,09,0.84,28.1,M,38.5,M,,*7C
$GPGSA,A,3,22,31,03,01,26,04,14,16,32,,,,1.65,0.84,1.42*08
$GPGSV,3,1,12,01,46,298,41,03,49,212,35,04,30,249,37,09,02,266,*71
$GPGSV,3,2,12,11,17,325,26,14,25,123,31,16,24,032,33,22,77,198,42*7B
$GPGSV,3,3,12,26,37,064,38,31,49,141,33,32,09,107,41,50,47,314,39*79
$GPGLL,2730.42914,S,15254.85124,E,051239.00,A,A*79
$GSENSOR,6,1066,40
$GPRMC,051240.00,A,2730.43038,S,15254.85938,E,26.280,99.98,240420,,,A*7C
$GPVTG,99.98,T,,M,26.280,N,48.670,K,A*0F
$GPGGA,051240.00,2730.43038,S,15254.85938,E,1,09,0.84,28.6,M,38.5,M,,*76
$GPGSA,A,3,22,31,03,01,26,04,14,16,32,,,,1.65,0.84,1.42*08
$GPGSV,3,1,12,01,46,298,41,03,49,212,35,04,30,249,30,09,02,266,*76
$GPGSV,3,2,12,11,17,325,24,14,25,123,29,16,24,032,35,22,77,198,38*7B
$GPGSV,3,3,12,26,37,064,42,31,49,141,35,32,09,107,31,50,47,314,37*7B
$GPGLL,2730.43038,S,15254.85938,E,051240.00,A,A*74
$GSENSOR,-116,960,174
$GPRMC,051241.00,A,2730.43157,S,15254.86723,E,24.815,100.36,240420,,,A*43
$GPVTG,100.36,T,,M,24.815,N,45.957,K,A*39
$GPGGA,051241.00,2730.43157,S,15254.86723,E,1,10,0.81,29.5,M,38.5,M,,*77
$GPGSA,A,3,22,31,03,01,26,04,14,16,11,32,,,1.57,0.81,1.35*0C
$GPGSV,3,1,12,01,46,298,38,03,49,212,30,04,30,249,36,09,02,266,*7B
$GPGSV,3,2,12,11,17,325,31,14,25,123,29,16,24,032,31,22,77,198,38*7B
$GPGSV,3,3,12,26,37,064,37,31,49,141,31,32,09,107,37,50,47,314,28*75
$GPGLL,2730.43157,S,15254.86723,E,051241.00,A,A*7A
$GSENSOR,52,992,-8
$GPRMC,051242.00,A,2730.43269,S,15254.87441,E,22.404,100.64,240420,,,A*45
$GPVTG,100.64,T,,M,22.404,N,41.492,K,A*34
$GPGGA,051242.00,2730.43269,S,15254.87441,E,1,10,0.81,30.7,M,38.5,M,,*76
$GPGSA,A,3,22,31,03,01,26,04,14,16,11,32,,,1.57,0.81,1.35*0C
$GPGSV,3,1,12,01,46,298,37,03,49,212,29,04,30,249,37,09,02,266,*7D
$GPGSV,3,2,12,11,17,325,26,14,25,122,29,16,24,032,25,22,77,198,38*79
$GPGSV,3,3,12,26,37,064,40,31,49,141,32,32,09,107,33,50,47,314,28*72
$GPGLL,2730.43269,S,15254.87441,E,051242.00,A,A*71
$GSENSOR,20,1116,-208
$GPRMC,051243.00,A,2730.43357,S,15254.88045,E,18.245,98.20,240420,,,A*7D
$GPVTG,98.20,T,,M,18.245,N,33.791,K,A*0B
$GPGGA,051243.00,2730.43357,S,15254.88045,E,1,10,0.81,31.9,M,38.5,M,,*7B
$GPGSA,A,3,22,31,03,01,26,04,14,16,11,32,,,1.57,0.81,1.35*0C
$GPGSV,3,1,12,01,46,299,37,03,49,212,33,04,30,249,39,09,02,266,*79
$GPGSV,3,2,12,11,17,325,25,14,25,122,29,16,24,032,32,22,77,198,38*7C
$GPGSV,3,3,12,26,37,064,42,31,49,141,31,32,09,107,33,50,47,314,36*7C
$GPGLL,2730.43357,S,15254.88045,E,051243.00,A,A*73
$GSENSOR,100,962,-256
$GPRMC,051244.00,A,2730.43367,S,15254.88497,E,13.005,88.62,240420,,,A*78
$GPVTG,88.62,T,,M,13.005,N,24.086,K,A*06
$GPGGA,051244.00,2730.43367,S,15254.88497,E,1,10,0.81,32.4,M,38.5,M,,*7A
$GPGSA,A,3,22,31,03,01,26,04,14,16,11,32,,,1.57,0.81,1.35*0C
$GPGSV,3,1,12,01,46,299,39,03,49,212,38,04,30,249,33,09,02,266,*76
$GPGSV,3,2,12,11,17,325,32,14,25,122,30,16,24,032,36,22,77,198,41*78
$GPGSV,3,3,12,26,37,064,39,31,49,141,36,32,09,107,30,50,47,314,36*74
$GPGLL,2730.43367,S,15254.88497,E,051244.00,A,A*7C
$GSENSOR,20,904,-256
$GPRMC,051245.00,A,2730.43336,S,15254.88784,E,7.848,80.44,240420,,,A*44
$GPVTG,80.44,T,,M,7.848,N,14.534,K,A*31
$GPGGA,051245.00,2730.43336,S,15254.88784,E,1,10,0.81,32.5,M,38.5,M,,*7F
$GPGSA,A,3,22,31,03,01,26,04,14,16,11,32,,,1.57,0.81,1.35*0C
$GPGSV,4,1,13,01,46,299,42,03,49,212,40,04,30,249,34,09,02,266,*74
$GPGSV,4,2,13,11,17,325,27,14,25,122,33,16,24,032,33,22,77,198,41*7C
$GPGSV,4,3,13,23,,,35,26,37,064,39,31,49,141,35,32,09,107,29*4B
$GPGSV,4,4,13,50,47,314,36*4E
$GPGLL,2730.43336,S,15254.88784,E,051245.00,A,A*78
$GSENSOR,-62,944,-200
$GPRMC,051246.00,A,2730.43308,S,15254.88927,E,3.250,79.96,240420,,,A*43
$GPVTG,79.96,T,,M,3.250,N,6.018,K,A*07
$GPGGA,051246.00,2730.43308,S,15254.88927,E,1,09,0.88,32.7,M,38.5,M,,*75
$GPGSA,A,3,22,31,03,01,26,04,14,16,11,,,,1.86,0.88,1.64*0C
$GPGSV,4,1,13,01,46,299,43,03,49,212,41,04,30,249,32,09,02,266,*72
$GPGSV,4,2,13,11,17,325,25,14,25,122,36,16,24,032,38,22,77,198,43*72
$GPGSV,4,3,13,23,,,37,26,37,064,42,31,49,141,34,32,09,107,29*44
$GPGSV,4,4,13,50,47,314,36*4E
$GPGLL,2730.43308,S,15254.88927,E,051246.00,A,A*71
$GSENSOR,-130,1018,190
$GPRMC,051247.00,A,2730.43297,S,15254.89043,E,3.910,85.81,240420,,,A*45
$GPVTG,85.81,T,,M,3.910,N,7.241,K,A*02
$GPGGA,051247.00,2730.43297,S,15254.89043,E,1,10,0.88,32.9,M,38.5,M,,*7F
$GPGSA,A,3,22,31,03,01,26,04,14,16,11,32,,,1.86,0.88,1.64*0D
$GPGSV,4,1,13,01,46,299,42,03,49,212,42,04,30,249,36,09,02,266,*74
$GPGSV,4,2,13,11,17,325,26,14,25,122,36,16,24,032,38,22,77,198,45*77
$GPGSV,4,3,13,23,,,39,26,37,064,40,31,49,141,37,32,09,107,27*45
$GPGSV,4,4,13,50,47,314,36*4E
$GPGLL,2730.43297,S,15254.89043,E,051247.00,A,A*7D
$GSENSOR,-182,898,306
$GPRMC,051248.00,A,2730.43345,S,15254.89270,E,8.831,105.44,240420,,,A*7F
$GPVTG,105.44,T,,M,8.831,N,16.355,K,A*0F
$GPGGA,051248.00,2730.43345,S,15254.89270,E,1,10,0.81,33.2,M,38.5,M,,*7F
$GPGSA,A,3,22,31,03,01,26,04,14,16,11,32,,,1.57,0.81,1.35*0C
$GPGSV,4,1,13,01,46,299,43,03,49,212,33,04,30,249,38,09,02,266,*7D
$GPGSV,4,2,13,11,17,325,25,14,25,122,30,16,24,032,39,22,77,198,41*77
$GPGSV,4,3,13,23,,,35,26,37,064,42,31,49,141,35,32,09,107,26*48
$GPGSV,4,4,13,50,47,314,41*4E
$GPGLL,2730.43345,S,15254.89270,E,051248.00,A,A*7E
$GSENSOR,-374,846,242
$GPRMC,051249.00,A,2730.43530,S,15254.89559,E,12.385,128.59,240420,,,A*4A
$GPVTG,128.59,T,,M,12.385,N,22.937,K,A*3A
$GPGGA,051249.00,2730.43530,S,15254.89559,E,1,10,0.81,33.4,M,38.5,M,,*70
$GPGSA,A,3,22,31,03,01,26,04,14,16,11,32,,,1.57,0.81,1.35*0C
$GPGSV,4,1,13,01,46,299,38,03,49,212,40,04,30,249,29,09,02,266,*75
$GPGSV,4,2,13,11,17,325,31,14,25,122,36,16,24,032,37,22,77,198,40*7B
$GPGSV,4,3,13,23,,,32,26,37,064,40,31,49,141,45,32,09,107,27*4B
$GPGSV,4,4,13,50,47,314,38*40
$GPGLL,2730.43530,S,15254.89559,E,051249.00,A,A*77
$GSENSOR,-362,974,106
$GPRMC,051250.00,A,2730.43848,S,15254.89797,E,14.639,150.84,240420,,,A*4B
$GPVTG,150.84,T,,M,14.639,N,27.111,K,A*38
$GPGGA,051250.00,2730.43848,S,15254.89797,E,1,10,0.81,33.7,M,38.5,M,,*79
$GPGSA,A,3,22,31,03,01,26,04,14,16,11,32,,,1.57,0.81,1.35*0C
$GPGSV,4,1,13,01,46,299,39,03,49,212,34,04,30,249,33,09,02,266,*7C
$GPGSV,4,2,13,11,17,325,36,14,25,122,36,16,24,032,30,22,77,198,42*79
$GPGSV,4,3,13,23,,,28,26,37,064,42,31,49,141,44,32,09,107,26*42
$GPGSV,4,4,13,50,47,314,34*4C
$GPGLL,2730.43848,S,15254.89797,E,051250.00,A,A*7D
$GSENSOR,-136,984,148
$GPRMC,051251.00,A,2730.44272,S,15254.89962,E,16.855,164.01,240420,,,A*46
$GPVTG,164.01,T,,M,16.855,N,31.216,K,A*37
$GPGGA,051251.00,2730.44272,S,15254.89962,E,1,10,0.81,34.2,M,38.5,M,,*7A
$GPGSA,A,3,22,31,03,01,26,04,14,16,11,32,,,1.57,0.81,1.35*0C
$GPGSV,4,1,13,01,46,299,40,03,49,212,37,04,30,249,33,09,02,266,*71
$GPGSV,4,2,13,11,17,325,32,14,25,122,25,16,24,032,31,22,77,198,43*7F
$GPGSV,4,3,13,23,,,27,26,37,064,32,31,49,141,41,32,09,107,25*4C
$GPGSV,4,4,13,50,47,314,35*4D
$GPGLL,2730.44272,S,15254.89962,E,051251.00,A,A*7C
$GSENSOR,-36,952,232
$GPRMC,051252.00,A,2730.44769,S,15254.90101,E,19.084,167.22,240420,,,A*46
$GPVTG,167.22,T,,M,19.084,N,35.343,K,A*3B
$GPGGA,051252.00,2730.44769,S,15254.90101,E,1,10,0.81,34.9,M,38.5,M,,*78
$GPGSA,A,3,22,31,03,01,26,04,14,16,11,32,,,1.57,0.81,1.35*0C
$GPGSV,4,1,13,01,46,299,38,03,49,212,37,04,30,249,33,09,02,266,*7E
$GPGSV,4,2,13,11,17,325,25,14,25,122,31,16,24,032,30,22,77,198,43*7D
$GPGSV,4,3,13,23,,,29,26,37,064,33,31,49,141,40,32,09,107,30*46
$GPGSV,4,4,13,50,47,314,31*49
$GPGLL,2730.44769,S,15254.90101,E,051252.00,A,A*75
$GSENSOR,6,1076,258
$GPRMC,051253.00,A,2730.45330,S,15254.90230,E,21.185,169.00,240420,,,A*4A
$GPVTG,169.00,T,,M,21.185,N,39.235,K,A*32
$GPGGA,051253.00,2730.45330,S,15254.90230,E,1,10,0.81,35.5,M,38.4,M,,*7D
$GPGSA,A,3,22,31,03,01,26,04,14,16,11,32,,,1.57,0.81,1.35*0C
$GPGSV,4,1,13,01,46,299,40,03,49,212,37,04,30,249,32,09,02,266,*70
$GPGSV,4,2,13,11,17,325,23,14,25,122,32,16,24,032,31,22,77,198,43*79
$GPGSV,4,3,13,23,,,29,26,37,065,33,31,49,141,40,32,09,107,25*43
$GPGSV,4,4,13,50,47,314,30*48
$GPGLL,2730.45330,S,15254.90230,E,051253.00,A,A*7C
$GSENSOR,-18,1062,-4
$GPRMC,051254.00,A,2730.45953,S,15254.90343,E,23.371,171.55,240420,,,A*45
$GPVTG,171.55,T,,M,23.371,N,43.283,K,A*30
$GPGGA,051254.00,2730.45953,S,15254.90343,E,1,09,0.84,36.2,M,38.4,M,,*79
$GPGSA,A,3,22,31,03,01,26,04,14,16,32,,,,1.65,0.84,1.42*08
$GPGSV,4,1,13,01,46,299,42,03,49,212,36,04,30,249,31,09,02,266,*70
$GPGSV,4,2,13,11,17,325,29,14,25,122,31,16,24,032,33,22,77,198,44*75
$GPGSV,4,3,13,23,,,28,26,37,065,36,31,49,141,43,32,09,107,27*46
$GPGSV,4,4,13,50,47,314,29*40
$GPGLL,2730.45953,S,15254.90343,E,051254.00,A,A*71
$GSENSOR,-100,1006,308
$GPRMC,051255.00,A,2730.46636,S,15254.90426,E,25.095,175.08,240420,,,A*4C
$GPVTG,175.08,T,,M,25.095,N,46.475,K,A*39
$GPGGA,051255.00,2730.46636,S,15254.90426,E,1,10,0.81,36.8,M,38.4,M,,*74
$GPGSA,A,3,22,31,03,01,26,04,14,16,11,32,,,1.57,0.81,1.34*0D
$GPGSV,4,1,13,01,46,299,41,03,49,212,31,04,30,249,32,09,02,266,*77
$GPGSV,4,2,13,11,17,325,34,14,25,122,34,16,24,032,34,22,77,198,41*7E
$GPGSV,4,3,13,23,,,28,26,37,065,37,31,49,141,42,32,09,107,33*43
$GPGSV,4,4,13,50,47,314,29*40
$GPGLL,2730.46636,S,15254.90426,E,051255.00,A,A*7B
$GSENSOR,-152,1050,12
$GPRMC,051256.00,A,2730.47352,S,15254.90467,E,25.745,177.88,240420,,,A*4C
$GPVTG,177.88,T,,M,25.745,N,47.679,K,A*36
$GPGGA,051256.00,2730.47352,S,15254.90467,E,1,09,0.88,37.2,M,38.4,M,,*7E
$GPGSA,A,3,22,31,03,01,26,04,14,16,11,,,,1.86,0.88,1.64*0C
$GPGSV,4,1,13,01,46,299,40,03,49,212,36,04,30,249,35,09,02,266,*76
$GPGSV,4,2,13,11,17,325,34,14,25,122,37,16,24,032,33,22,77,198,40*7B
$GPGSV,4,3,13,23,,,32,26,37,065,40,31,49,141,42,32,09,107,30*4B
$GPGSV,4,4,13,50,47,314,31*49
$GPGLL,2730.47352,S,15254.90467,E,051256.00,A,A*7B
$GSENSOR,-156,1002,-154
$GPRMC,051257.00,A,2730.48094,S,15254.90465,E,26.539,181.04,240420,,,A*4E
$GPVTG,181.04,T,,M,26.539,N,49.150,K,A*33
$GPGGA,051257.00,2730.48094,S,15254.90465,E,1,09,0.88,37.6,M,38.4,M,,*7F
$GPGSA,A,3,22,31,03,01,26,04,14,16,11,,,,1.86,0.88,1.64*0C
$GPGSV,4,1,13,01,46,299,40,03,49,212,39,04,30,249,37,09,02,266,*7B
$GPGSV,4,2,13,11,17,325,33,14,25,122,35,16,24,032,36,22,77,198,41*7A
$GPGSV,4,3,13,23,,,27,26,37,065,37,31,49,141,43,32,09,107,22*4D
$GPGSV,4,4,13,50,47,314,34*4C
$GPGLL,2730.48094,S,15254.90465,E,051257.00,A,A*7E
$GSENSOR,-118,936,42
$GPRMC,051258.00,A,2730.48853,S,15254.90416,E,27.217,184.25,240420,,,A*4A
$GPVTG,184.25,T,,M,27.217,N,50.407,K,A*30
$GPGGA,051258.00,2730.48853,S,15254.90416,E,1,09,0.88,37.8,M,38.4,M,,*79
$GPGSA,A,3,22,31,03,01,26,04,14,16,11,,,,1.86,0.88,1.64*0C
$GPGSV,4,1,13,01,46,299,35,03,49,212,42,04,30,249,25,09,02,266,*76
$GPGSV,4,2,13,11,17,325,29,14,25,122,40,16,24,032,36,22,77,198,42*70
$GPGSV,4,3,13,23,,,26,26,37,065,40,31,48,141,42,32,09,107,*4C
$GPGSV,4,4,13,50,47,314,35*4D
$GPGLL,2730.48853,S,15254.90416,E,051258.00,A,A*76
$GSENSOR,-6,1042,212
$GPRMC,051259.00,A,2730.49631,S,15254.90331,E,27.835,185.55,240420,,,A*4E
$GPVTG,185.55,T,,M,27.835,N,51.550,K,A*3E
$GPGGA,051259.00,2730.49631,S,15254.90331,E,1,08,0.90,38.2,M,38.4,M,,*7C
$GPGSA,A,3,22,31,03,01,26,04,14,16,,,,,1.94,0.90,1.72*01
$GPGSV,4,1,13,01,46,299,33,03,49,212,40,04,30,249,24,09,02,266,*73
$GPGSV,4,2,13,11,17,325,,14,25,122,35,16,24,032,36,22,77,198,44*7F
$GPGSV,4,3,13,23,,,30,26,37,065,41,31,48,141,42,32,09,107,*4A
$GPGSV,4,4,13,50,47,314,38*40
$GPGLL,2730.49631,S,15254.90331,E,051259.00,A,A*7E
$GSENSOR,0,992,140
$GPRMC,051300.00,A,2730.50407,S,15254.90244,E,28.189,185.76,240420,,,A*4F
$GPVTG,185.76,T,,M,28.189,N,52.206,K,A*39
$GPGGA,051300.00,2730.50407,S,15254.90244,E,1,08,0.90,39.1,M,38.4,M,,*7F
$GPGSA,A,3,22,31,03,01,26,04,14,16,,,,,1.94,0.90,1.72*01
$GPGSV,4,1,13,01,46,299,32,03,49,212,41,04,30,249,27,09,02,266,*70
$GPGSV,4,2,13,11,17,325,26,14,25,122,33,16,24,032,37,22,77,198,42*7A
$GPGSV,4,3,13,23,,,24,26,37,065,41,31,48,141,42,32,09,107,*4F
$GPGSV,4,4,13,50,47,314,40*4F
$GPGLL,2730.50407,S,15254.90244,E,051300.00,A,A*7F
$GSENSOR,-6,980,108
$GPRMC,051301.00,A,2730.51193,S,15254.90156,E,28.413,185.78,240420,,,A*4F
$GPVTG,185.78,T,,M,28.413,N,52.621,K,A*30
$GPGGA,051301.00,2730.51193,S,15254.90156,E,1,09,0.88,40.0,M,38.4,M,,*70
$GPGSA,A,3,22,31,03,01,26,04,14,16,11,,,,1.86,0.88,1.64*0C
$GPGSV,4,1,13,01,46,299,35,03,49,212,42,04,30,249,26,09,02,266,*75
$GPGSV,4,2,13,11,17,325,26,14,25,122,29,16,24,032,36,22,77,198,44*76
$GPGSV,4,3,13,23,,,26,26,37,065,41,31,48,141,42,32,09,107,26*49
$GPGSV,4,4,13,50,47,314,40*4F
$GPGLL,2730.51193,S,15254.90156,E,051301.00,A,A*77
$GSENSOR,-54,960,322
$GPRMC,051302.00,A,2730.51977,S,15254.90075,E,28.395,185.34,240420,,,A*4F
$GPVTG,185.34,T,,M,28.395,N,52.587,K,A*3E
$GPGGA,051302.00,2730.51977,S,15254.90075,E,1,10,0.84,41.1,M,38.4,M,,*75
$GPGSA,A,3,22,31,03,01,26,04,14,16,11,32,,,1.65,0.84,1.42*08
$GPGSV,4,1,13,01,46,299,31,03,49,212,41,04,30,249,26,09,02,266,*72
$GPGSV,4,2,13,11,17,325,24,14,25,122,40,16,24,032,34,22,77,198,43*7E
$GPGSV,4,3,13,23,,,32,26,37,065,41,31,48,141,43,32,09,107,32*48
$GPGSV,4,4,13,50,47,314,40*4F
$GPGLL,2730.51977,S,15254.90075,E,051302.00,A,A*76
$GSENSOR,62,1040,206
$GPRMC,051303.00,A,2730.52758,S,15254.89993,E,28.449,185.31,240420,,,A*44
$GPVTG,185.31,T,,M,28.449,N,52.687,K,A*3E
$GPGGA,051303.00,2730.52758,S,15254.89993,E,1,10,0.84,42.1,M,38.4,M,,*7E
$GPGSA,A,3,22,31,03,01,26,04,14,16,11,32,,,1.65,0.84,1.42*08
$GPGSV,4,1,13,01,46,299,34,03,49,212,41,04,30,249,27,09,02,266,*76
$GPGSV,4,2,13,11,17,325,23,14,25,122,40,16,24,032,33,22,77,198,42*7F
$GPGSV,4,3,13,23,,,25,26,37,065,40,31,48,141,43,32,09,107,27*4B
$GPGSV,4,4,13,50,47,314,40*4F
$GPGLL,2730.52758,S,15254.89993,E,051303.00,A,A*7E
$GSENSOR,-12,904,212
$GPRMC,051304.00,A,2730.53539,S,15254.89930,E,28.133,183.68,240420,,,A*4C
$GPVTG,183.68,T,,M,28.133,N,52.102,K,A*36
$GPGGA,051304.00,2730.53539,S,15254.89930,E,1,09,0.84,43.3,M,38.4,M,,*7F
$GPGSA,A,3,22,31,03,01,26,04,14,16,32,,,,1.65,0.84,1.42*08
$GPGSV,4,1,13,01,46,299,21,03,49,212,39,04,30,249,35,09,02,266,*7E
$GPGSV,4,2,13,11,17,325,24,14,25,122,38,16,24,032,36,22,77,198,43*73
$GPGSV,4,3,13,23,,,22,26,37,065,40,31,48,141,42,32,09,107,25*4F
$GPGSV,4,4,13,50,47,314,33*4B
$GPGLL,2730.53539,S,15254.89930,E,051304.00,A,A*74
$GSENSOR,124,900,2
$GPRMC,051305.00,A,2730.54317,S,15254.89918,E,27.800,179.44,240420,,,A*47
$GPVTG,179.44,T,,M,27.800,N,51.486,K,A*31
$GPGGA,051305.00,2730.54317,S,15254.89918,E,1,09,0.84,44.0,M,38.4,M,,*7D
$GPGSA,A,3,22,31,03,01,26,04,14,16,32,,,,1.65,0.84,1.42*08
$GPGSV,4,1,13,01,46,299,36,03,49,212,37,04,30,249,29,09,02,266,*7B
$GPGSV,4,2,13,11,17,325,23,14,25,122,36,16,24,032,33,22,77,198,43*7F
$GPGSV,4,3,13,23,,,19,26,37,065,40,31,48,141,41,32,09,107,32*42
$GPGSV,4,4,13,50,47,314,32*4A
$GPGLL,2730.54317,S,15254.89918,E,051305.00,A,A*72
$GSENSOR,238,984,102
$GPRMC,051306.00,A,2730.55087,S,15254.90004,E,27.723,172.08,240420,,,A*4E
$GPVTG,172.08,T,,M,27.723,N,51.342,K,A*33
$GPGGA,051306.00,2730.55087,S,15254.90004,E,1,10,0.81,44.6,M,38.4,M,,*72
$GPGSA,A,3,22,31,03,01,26,04,14,16,11,32,,,1.57,0.81,1.34*0D
$GPGSV,4,1,13,01,46,299,39,03,49,212,35,04,30,249,28,09,02,266,*77
$GPGSV,4,2,13,11,17,325,24,14,25,122,29,16,24,032,30,22,77,198,37*76
$GPGSV,4,3,13,23,,,19,26,37,065,36,31,48,141,40,32,09,107,31*41
$GPGSV,4,4,13,50,47,314,31*49
$GPGLL,2730.55087,S,15254.90004,E,051306.00,A,A*76
$GSENSOR,270,966,120
$GPRMC,051307.00,A,2730.55838,S,15254.90208,E,27.726,164.16,240420,,,A*40
$GPVTG,164.16,T,,M,27.726,N,51.349,K,A*35
$GPGGA,051307.00,2730.55838,S,15254.90208,E,1,10,0.81,45.3,M,38.4,M,,*75
$GPGSA,A,3,22,31,03,01,26,04,14,16,11,32,,,1.57,0.81,1.34*0D
$GPGSV,4,1,13,01,46,299,34,03,49,212,28,04,30,249,36,09,02,266,*79
$GPGSV,4,2,13,11,17,325,26,14,25,122,28,16,24,032,24,22,77,198,38*7F
$GPGSV,4,3,13,23,,,19,26,37,065,35,31,48,141,41,32,09,107,26*45
$GPGSV,4,4,13,50,47,314,37*4F
$GPGLL,2730.55838,S,15254.90208,E,051307.00,A,A*75
$GSENSOR,338,944,-24
$GPRMC,051308.00,A,2730.56554,S,15254.90538,E,27.760,155.25,240420,,,A*4F
$GPVTG,155.25,T,,M,27.760,N,51.412,K,A*3C
$GPGGA,051308.00,2730.56554,S,15254.90538,E,1,10,0.81,45.8,M,38.4,M,,*71
$GPGSA,A,3,22,31,03,01,26,04,14,16,11,32,,,1.57,0.81,1.34*0D
$GPGSV,4,1,13,01,46,299,36,03,49,212,28,04,30,249,28,09,02,266,*74
$GPGSV,4,2,13,11,17,325,26,14,25,122,33,16,24,032,37,22,77,198,43*7B
$GPGSV,4,3,13,23,,,20,26,37,065,33,31,48,141,39,32,09,107,26*46
$GPGSV,4,4,13,50,47,314,34*4C
$GPGLL,2730.56554,S,15254.90538,E,051308.00,A,A*7A
$GSENSOR,172,1092,120
$GPRMC,051309.00,A,2730.57220,S,15254.90980,E,27.661,147.06,240420,,,A*46
$GPVTG,147.06,T,,M,27.661,N,51.229,K,A*30
$GPGGA,051309.00,2730.57220,S,15254.90980,E,1,10,0.81,46.0,M,38.4,M,,*71
$GPGSA,A,3,22,31,03,01,26,04,14,16,11,32,,,1.57,0.81,1.34*0D
$GPGSV,4,1,13,01,46,299,39,03,49,212,35,04,30,249,32,09,02,266,*7C
$GPGSV,4,2,13,11,17,325,27,14,25,122,38,16,24,032,27,22,77,198,41*72
$GPGSV,4,3,13,23,,,19,26,37,065,37,31,48,141,43,32,09,107,25*46
$GPGSV,4,4,13,50,47,314,37*4F
$GPGLL,2730.57220,S,15254.90980,E,051309.00,A,A*71
$GSENSOR,194,980,36
$GPRMC,051310.00,A,2730.57801,S,15254.91536,E,27.526,137.93,240420,,,A*4C
$GPVTG,137.93,T,,M,27.526,N,50.979,K,A*34
$GPGGA,051310.00,2730.57801,S,15254.91536,E,1,09,0.88,46.8,M,38.4,M,,*79
$GPGSA,A,3,22,31,03,01,26,04,14,16,11,,,,1.85,0.88,1.63*08
$GPGSV,4,1,13,01,46,299,40,03,49,212,42,04,30,249,38,09,02,266,*78
$GPGSV,4,2,13,11,17,325,35,14,25,122,33,16,24,032,32,22,77,198,33*7B
$GPGSV,4,3,13,23,,,19,26,37,065,37,31,48,141,44,32,09,107,29*4D
$GPGSV,4,4,13,50,47,314,37*4F
$GPGLL,2730.57801,S,15254.91536,E,051310.00,A,A*70
$GSENSOR,126,1018,204
$GPRMC,051311.00,A,2730.58331,S,15254.92163,E,27.808,131.33,240420,,,A*40
$GPVTG,131.33,T,,M,27.808,N,51.501,K,A*3B
$GPGGA,051311.00,2730.58331,S,15254.92163,E,1,10,0.81,47.2,M,38.4,M,,*72
$GPGSA,A,3,22,31,03,01,26,04,14,16,11,32,,,1.57,0.81,1.34*0D
$GPGSV,4,1,13,01,46,299,36,03,49,212,42,04,30,249,35,09,02,266,*74
$GPGSV,4,2,13,11,17,325,32,14,25,122,36,16,24,032,35,22,77,198,31*7C
$GPGSV,4,3,13,23,,,22,26,37,065,36,31,48,141,41,32,09,107,37*4E
$GPGSV,4,4,13,50,47,314,37*4F
$GPGLL,2730.58331,S,15254.92163,E,051311.00,A,A*71
$GSENSOR,200,1174,188
$GPRMC,051312.00,A,2730.58794,S,15254.92873,E,28.245,123.84,240420,,,A*43
$GPVTG,123.84,T,,M,28.245,N,52.309,K,A*35
$GPGGA,051312.00,2730.58794,S,15254.92873,E,1,10,0.81,47.3,M,38.4,M,,*73
$GPGSA,A,3,22,31,03,01,26,04,14,16,11,32,,,1.57,0.81,1.34*0D
$GPGSV,4,1,13,01,46,299,29,03,49,212,37,04,30,249,31,09,02,266,*7C
$GPGSV,4,2,13,11,17,325,31,14,25,122,38,16,24,032,35,22,77,198,40*77
$GPGSV,4,3,13,23,,,28,26,37,065,40,31,48,141,44,32,09,107,41*41
$GPGSV,4,4,13,50,47,314,35*4D
$GPGLL,2730.58794,S,15254.92873,E,051312.00,A,A*71
$GSENSOR,184,906,8
$GPRMC,051313.00,A,2730.59171,S,15254.93663,E,28.851,116.39,240420,,,A*4F
$GPVTG,116.39,T,,M,28.851,N,53.432,K,A*34
$GPGGA,051313.00,2730.59171,S,15254.93663,E,1,10,0.81,47.2,M,38.4,M,,*71
$GPGSA,A,3,22,31,03,01,26,04,14,16,11,32,,,1.57,0.81,1.34*0D
$GPGSV,4,1,13,01,46,299,38,03,49,212,29,04,30,249,31,09,02,266,*73
$GPGSV,4,2,13,11,17,325,31,14,25,122,39,16,24,032,37,22,77,198,40*74
$GPGSV,4,3,13,23,,,26,26,37,065,39,31,48,141,44,32,09,107,39*4E
$GPGSV,4,4,13,50,47,314,38*40
$GPGLL,2730.59171,S,15254.93663,E,051313.00,A,A*72
$GSENSOR,290,906,-42
$GPRMC,051314.00,A,2730.59458,S,15254.94505,E,28.932,108.95,240420,,,A*4F
$GPVTG,108.95,T,,M,28.932,N,53.583,K,A*32
$GPGGA,051314.00,2730.59458,S,15254.94505,E,1,10,0.81,47.1,M,38.4,M,,*7F
$GPGSA,A,3,22,31,03,01,26,04,14,16,11,32,,,1.57,0.81,1.34*0D
$GPGSV,4,1,13,01,46,299,40,03,49,212,30,04,30,249,35,09,02,266,*70
$GPGSV,4,2,13,11,17,325,30,14,25,122,37,16,24,032,36,22,77,198,44*7E
$GPGSV,4,3,13,23,,,23,26,37,065,36,31,48,141,39,32,09,107,33*44
$GPGSV,4,4,13,50,47,314,40*4F
$GPGLL,2730.59458,S,15254.94505,E,051314.00,A,A*7F
$GSENSOR,180,1022,4
$GPRMC,051315.00,A,2730.59641,S,15254.95378,E,28.859,100.85,240420,,,A*4C
$GPVTG,100.85,T,,M,28.859,N,53.448,K,A*31
$GPGGA,051315.00,2730.59641,S,15254.95378,E,1,10,0.81,46.7,M,38.4,M,,*7E
$GPGSA,A,3,22,31,03,01,26,04,14,16,11,32,,,1.57,0.81,1.34*0D
$GPGSV,4,1,13,01,46,299,38,03,49,212,36,04,30,249,37,09,02,266,*7B
$GPGSV,4,2,13,11,17,325,31,14,25,122,32,16,24,032,39,22,77,198,44*75
$GPGSV,4,3,13,23,,,22,26,37,065,35,31,48,141,36,32,09,107,36*4C
$GPGSV,4,4,13,50,47,314,39*41
$GPGLL,2730.59641,S,15254.95378,E,051315.00,A,A*79
$GSENSOR,94,864,4
$GPRMC,051318.00,A,2730.59876,S,15254.98080,E,28.513,97.37,240420,,,A*77
$GPVTG,97.37,T,,M,28.513,N,52.806,K,A*03
$GPGGA,051318.00,2730.59876,S,15254.98080,E,1,09,0.84,45.0,M,38.4,M,,*79
$GPGSA,A,3,22,31,03,01,26,04,14,16,32,,,,1.65,0.84,1.42*08
$GPGSV,4,1,13,01,46,299,41,03,49,212,35,04,30,249,38,09,02,266,*79
$GPGSV,4,2,13,11,17,325,,14,25,122,36,16,24,032,32,22,77,198,44*78
$GPGSV,4,3,13,23,,,20,26,37,065,40,31,48,141,36,32,09,107,34*4E
$GPGSV,4,4,13,50,47,314,40*4F
$GPGLL,2730.59876,S,15254.98080,E,051318.00,A,A*77
$GSENSOR,-178,972,-94
$GPRMC,051319.00,A,2730.60039,S,15254.98944,E,28.339,103.73,240420,,,A*4C
$GPVTG,103.73,T,,M,28.339,N,52.483,K,A*30
$GPGGA,051319.00,2730.60039,S,15254.98944,E,1,09,0.99,44.0,M,38.4,M,,*7D
$GPGSA,A,3,22,31,03,01,26,04,14,16,32,,,,1.81,0.99,1.52*0F
$GPGSV,4,1,13,01,46,299,41,03,49,212,36,04,30,249,27,09,02,266,*74
$GPGSV,4,2,13,11,17,325,,14,25,122,34,16,24,032,39,22,77,198,45*70
$GPGSV,4,3,13,23,,,19,26,37,065,40,31,48,141,33,32,09,107,24*40
$GPGSV,4,4,13,50,47,314,39*41
$GPGLL,2730.60039,S,15254.98944,E,051319.00,A,A*7E
$GSENSOR,-136,1000,-64
$GPRMC,051320.00,A,2730.60290,S,15254.99790,E,28.617,110.54,240420,,,A*4F
$GPVTG,110.54,T,,M,28.617,N,52.999,K,A*38
$GPGGA,051320.00,2730.60290,S,15254.99790,E,1,09,0.89,42.8,M,38.4,M,,*7F
$GPGSA,A,3,22,31,03,01,26,04,14,16,32,,,,1.75,0.89,1.50*07
$GPGSV,4,1,13,01,46,299,37,03,49,212,36,04,30,249,29,09,02,266,*7B
$GPGSV,4,2,13,11,17,325,,14,25,122,37,16,24,032,38,22,77,198,44*73
$GPGSV,4,3,13,23,,,20,26,37,065,40,31,48,141,39,32,09,107,25*41
$GPGSV,4,4,13,50,47,314,38*40
$GPGLL,2730.60290,S,15254.99790,E,051320.00,A,A*73
$GSENSOR,-206,982,-30
$GPRMC,051321.00,A,2730.60638,S,15255.00610,E,29.330,116.97,240420,,,A*48
$GPVTG,116.97,T,,M,29.330,N,54.319,K,A*34
$GPGGA,051321.00,2730.60638,S,15255.00610,E,1,08,0.93,41.4,M,38.4,M,,*75
$GPGSA,A,3,22,31,03,01,26,04,14,16,,,,,2.06,0.93,1.84*03
$GPGSV,4,1,13,01,46,299,31,03,49,212,27,04,30,249,33,09,02,266,*76
$GPGSV,4,2,13,11,17,325,,14,25,122,39,16,24,032,38,22,77,198,44*7D
$GPGSV,4,3,13,23,,,20,26,37,065,37,31,48,141,40,32,09,107,*48
$GPGSV,4,4,13,50,47,314,34*4C
$GPGLL,2730.60638,S,15255.00610,E,051321.00,A,A*7C
$GSENSOR,-192,1036,-78
$GPRMC,051322.00,A,2730.61059,S,15255.01396,E,29.424,121.89,240420,,,A*48
$GPVTG,121.89,T,,M,29.424,N,54.493,K,A*38
$GPGGA,051322.00,2730.61059,S,15255.01396,E,1,09,0.89,39.5,M,38.4,M,,*78
$GPGSA,A,3,22,31,03,01,26,04,14,16,32,,,,1.75,0.89,1.50*07
$GPGSV,4,1,13,01,46,299,29,03,49,212,32,04,30,249,36,09,02,266,*7E
$GPGSV,4,2,13,11,17,325,25,14,25,122,41,16,24,032,27,22,77,198,42*7D
$GPGSV,4,3,13,23,,,21,26,37,065,33,31,48,141,40,32,09,107,32*4C
$GPGSV,4,4,13,50,47,314,33*4B
$GPGLL,2730.61059,S,15255.01396,E,051322.00,A,A*75
$GSENSOR,-16,970,52
$GPRMC,051323.00,A,2730.61494,S,15255.02161,E,28.942,122.99,240420,,,A*4B
$GPVTG,122.99,T,,M,28.942,N,53.601,K,A*38
$GPGGA,051323.00,2730.61494,S,15255.02161,E,1,09,0.84,38.1,M,38.4,M,,*7D
$GPGSA,A,3,22,31,03,01,26,04,14,16,32,,,,1.65,0.84,1.42*08
$GPGSV,4,1,13,01,46,299,37,03,49,212,28,04,30,249,25,09,02,266,*78
$GPGSV,4,2,13,11,17,325,23,14,25,122,41,16,24,032,32,22,77,198,44*79
$GPGSV,4,3,13,23,,,29,26,37,065,40,31,48,141,43,32,09,107,32*43
$GPGSV,4,4,13,50,47,314,33*4B
$GPGLL,2730.61494,S,15255.02161,E,051323.00,A,A*78
$GSENSOR,-2,1038,-150
$GPRMC,051324.00,A,2730.61932,S,15255.02907,E,28.240,123.93,240420,,,A*47
$GPVTG,123.93,T,,M,28.240,N,52.300,K,A*3F
$GPGGA,051324.00,2730.61932,S,15255.02907,E,1,09,0.84,36.9,M,38.4,M,,*75
$GPGSA,A,3,22,31,03,01,26,04,14,16,32,,,,1.65,0.84,1.42*08
$GPGSV,4,1,13,01,46,299,37,03,49,212,29,04,30,249,26,09,02,266,*7A
$GPGSV,4,2,13,11,17,325,25,14,25,122,40,16,24,032,26,22,77,198,42*7D
$GPGSV,4,3,13,23,,,26,26,37,065,39,31,48,141,42,32,09,107,25*45
$GPGSV,4,4,13,50,47,314,33*4B
$GPGLL,2730.61932,S,15255.02907,E,051324.00,A,A*76
$GSENSOR,18,930,-30
$GPRMC,051325.00,A,2730.62346,S,15255.03634,E,27.258,122.23,240420,,,A*4E
$GPVTG,122.23,T,,M,27.258,N,50.483,K,A*3D
$GPGGA,051325.00,2730.62346,S,15255.03634,E,1,10,0.81,35.7,M,38.4,M,,*70
$GPGSA,A,3,22,31,03,01,26,04,14,16,11,32,,,1.57,0.81,1.34*0D
$GPGSV,4,1,13,01,46,299,37,03,49,212,29,04,30,249,26,09,02,266,*7A
$GPGSV,4,2,13,11,17,325,27,14,25,122,40,16,24,032,35,22,77,198,43*7C
$GPGSV,4,3,13,23,,,24,26,37,065,39,31,48,141,42,32,09,107,27*45
$GPGSV,4,4,13,50,47,314,33*4B
$GPGLL,2730.62346,S,15255.03634,E,051325.00,A,A*73
$GSENSOR,0,876,-126
$GPRMC,051326.00,A,2730.62722,S,15255.04348,E,26.057,120.49,240420,,,A*40
$GPVTG,120.49,T,,M,26.057,N,48.257,K,A*39
$GPGGA,051326.00,2730.62722,S,15255.04348,E,1,10,0.81,34.8,M,38.4,M,,*72
$GPGSA,A,3,22,31,03,01,26,04,14,16,11,32,,,1.57,0.81,1.34*0D
$GPGSV,4,1,13,01,46,299,40,03,49,212,28,04,30,249,24,09,02,266,*79
$GPGSV,4,2,13,11,17,325,27,14,25,122,39,16,24,032,25,22,77,198,43*73
$GPGSV,4,3,13,23,,,21,26,37,065,40,31,48,141,42,32,09,107,36*4E
$GPGSV,4,4,13,50,47,314,36*4E
$GPGLL,2730.62722,S,15255.04348,E,051326.00,A,A*7F
$GSENSOR,4,1184,-160
$GPRMC,051327.00,A,2730.63056,S,15255.05032,E,24.174,118.39,240420,,,A*45
$GPVTG,118.39,T,,M,24.174,N,44.770,K,A*3B
$GPGGA,051327.00,2730.63056,S,15255.05032,E,1,10,0.81,34.0,M,38.4,M,,*71
$GPGSA,A,3,22,31,03,01,26,04,14,16,11,32,,,1.57,0.81,1.34*0D
$GPGSV,4,1,13,01,46,299,39,03,49,212,28,04,30,249,26,09,02,266,*75
$GPGSV,4,2,13,11,17,325,25,14,25,122,41,16,24,032,38,22,77,198,44*75
$GPGSV,4,3,13,23,,,20,26,37,065,42,31,48,141,43,32,09,107,40*4D
$GPGSV,4,4,13,50,47,314,36*4E
$GPGLL,2730.63056,S,15255.05032,E,051327.00,A,A*74
$GSENSOR,116,1130,-222
$GPRMC,051328.00,A,2730.63305,S,15255.05684,E,22.109,111.46,240420,,,A*49
$GPVTG,111.46,T,,M,22.109,N,40.947,K,A*38
$GPGGA,051328.00,2730.63305,S,15255.05684,E,1,10,0.81,33.2,M,38.4,M,,*75
$GPGSA,A,3,22,31,03,01,26,04,14,16,11,32,,,1.57,0.81,1.34*0D
$GPGSV,4,1,13,01,46,299,39,03,49,212,28,04,30,249,26,09,02,266,*75
$GPGSV,4,2,13,11,17,325,26,14,25,122,38,16,24,032,36,22,77,198,43*71
$GPGSV,4,3,13,23,,,18,26,37,065,38,31,48,141,40,32,09,107,37*48
$GPGSV,4,4,13,50,47,314,36*4E
$GPGLL,2730.63305,S,15255.05684,E,051328.00,A,A*75
$GSENSOR,254,1172,-158
$GPRMC,051329.00,A,2730.63447,S,15255.06307,E,19.807,101.58,240420,,,A*45
$GPVTG,101.58,T,,M,19.807,N,36.682,K,A*3E
$GPGGA,051329.00,2730.63447,S,15255.06307,E,1,10,0.81,32.7,M,38.4,M,,*7C
$GPGSA,A,3,22,31,03,01,26,04,14,16,11,32,,,1.57,0.81,1.34*0D
$GPGSV,4,1,13,01,46,299,41,03,49,212,38,04,30,249,33,09,02,266,*7F
$GPGSV,4,2,13,11,17,325,24,14,25,122,35,16,24,032,35,22,77,198,44*7A
$GPGSV,4,3,13,23,,,17,26,37,065,28,31,48,141,37,32,09,107,31*40
$GPGSV,4,4,13,50,47,314,40*4F
$GPGLL,2730.63447,S,15255.06307,E,051329.00,A,A*78
$GSENSOR,184,1088,-188
$GPRMC,051330.00,A,2730.63450,S,15255.06928,E,18.781,88.67,240420,,,A*70
$GPVTG,88.67,T,,M,18.781,N,34.783,K,A*00
$GPGGA,051330.00,2730.63450,S,15255.06928,E,1,09,0.84,33.1,M,38.4,M,,*7F
$GPGSA,A,3,22,31,03,01,26,04,14,16,32,,,,1.65,0.84,1.42*08
$GPGSV,3,1,12,01,46,299,43,03,49,212,42,04,30,249,37,09,02,266,*72
$GPGSV,3,2,12,11,17,325,,14,25,122,36,16,24,032,24,22,77,198,43*7E
$GPGSV,3,3,12,26,37,065,38,31,48,141,36,32,09,107,28,50,47,314,36*7C
$GPGLL,2730.63450,S,15255.06928,E,051330.00,A,A*71
$GSENSOR,42,922,-56
$GPRMC,051331.00,A,2730.63414,S,15255.07471,E,17.175,83.48,240420,,,A*75
$GPVTG,83.48,T,,M,17.175,N,31.809,K,A*0C
$GPGGA,051331.00,2730.63414,S,15255.07471,E,1,09,0.84,32.8,M,38.4,M,,*76
$GPGSA,A,3,22,31,03,01,26,04,14,16,32,,,,1.65,0.84,1.42*08
$GPGSV,3,1,12,01,46,299,40,03,49,212,39,04,30,249,33,09,02,266,*79
$GPGSV,3,2,12,11,17,325,22,14,25,122,34,16,24,032,26,22,77,198,43*7E
$GPGSV,3,3,12,26,37,065,40,31,48,141,33,32,09,107,21,50,47,314,31*78
$GPGLL,2730.63414,S,15255.07471,E,051331.00,A,A*70
$GSENSOR,-236,1232,-166
$GPRMC,051332.00,A,2730.63422,S,15255.07974,E,15.415,94.30,240420,,,A*73
$GPVTG,94.30,T,,M,15.415,N,28.549,K,A*05
$GPGGA,051332.00,2730.63422,S,15255.07974,E,1,09,0.84,33.0,M,38.4,M,,*71
$GPGSA,A,3,22,31,03,01,26,04,14,16,32,,,,1.65,0.84,1.42*08
$GPGSV,3,1,12,01,46,299,33,03,49,212,41,04,30,249,36,09,02,266,*77
$GPGSV,3,2,12,11,17,325,,14,25,122,34,16,24,032,41,22,77,198,43*7F
$GPGSV,3,3,12,26,37,065,36,31,48,141,38,32,09,107,30,50,47,314,*70
$GPGLL,2730.63422,S,15255.07974,E,051332.00,A,A*7E
$GSENSOR,-290,964,2
$GPRMC,051333.00,A,2730.63566,S,15255.08416,E,15.045,113.88,240420,,,A*49
$GPVTG,113.88,T,,M,15.045,N,27.864,K,A*34
$GPGGA,051333.00,2730.63566,S,15255.08416,E,1,09,0.84,32.3,M,38.4,M,,*75
$GPGSA,A,3,22,31,03,01,26,04,14,16,32,,,,1.65,0.84,1.42*08
$GPGSV,3,1,12,01,46,299,39,03,49,212,30,04,30,249,27,09,02,266,*7B
$GPGSV,3,2,12,11,17,325,24,14,25,122,38,16,24,032,27,22,77,198,42*74
$GPGSV,3,3,12,26,37,065,40,31,48,141,40,32,09,107,28,50,47,314,*77
$GPGLL,2730.63566,S,15255.08416,E,051333.00,A,A*78
$GSENSOR,-388,932,-22
$GPRMC,051334.00,A,2730.63858,S,15255.08756,E,15.519,140.42,240420,,,A*45
$GPVTG,140.42,T,,M,15.519,N,28.741,K,A*3F
$GPGGA,051334.00,2730.63858,S,15255.08756,E,1,10,0.81,31.9,M,38.4,M,,*71
$GPGSA,A,3,22,31,03,01,26,04,14,16,11,32,,,1.57,0.81,1.34*0D
$GPGSV,3,1,12,01,46,299,33,03,49,212,42,04,30,249,37,09,02,266,*75
$GPGSV,3,2,12,11,17,325,34,14,25,122,36,16,24,032,35,22,77,198,39*74
$GPGSV,3,3,12,26,37,065,36,31,48,141,42,32,09,107,26,50,47,314,*7A
$GPGLL,2730.63858,S,15255.08756,E,051334.00,A,A*78
$GSENSOR,-466,1042,-88
$GPRMC,051335.00,A,2730.64263,S,15255.08917,E,16.053,167.11,240420,,,A*41
$GPVTG,167.11,T,,M,16.053,N,29.731,K,A*32
$GPGGA,051335.00,2730.64263,S,15255.08917,E,1,08,0.90,31.4,M,38.4,M,,*7A
$GPGSA,A,3,22,31,03,01,26,04,14,16,,,,,1.94,0.90,1.72*01
$GPGSV,3,1,12,01,46,299,39,03,49,212,27,04,30,249,25,09,02,266,*7F
$GPGSV,3,2,12,11,17,325,30,14,25,122,29,16,24,032,26,22,77,198,34*71
$GPGSV,3,3,12,26,37,065,33,31,48,141,44,32,09,107,,50,47,314,*7D
$GPGLL,2730.64263,S,15255.08917,E,051335.00,A,A*77
$GSENSOR,-598,1026,44
$GPRMC,051336.00,A,2730.64732,S,15255.08844,E,17.479,195.03,240420,,,A*47
$GPVTG,195.03,T,,M,17.479,N,32.371,K,A*3B
$GPGGA,051336.00,2730.64732,S,15255.08844,E,1,09,0.88,30.9,M,38.4,M,,*7B
$GPGSA,A,3,22,31,03,01,26,04,14,16,11,,,,1.85,0.88,1.63*08
$GPGSV,3,1,12,01,46,299,37,03,49,212,40,04,30,249,27,09,02,266,*72
$GPGSV,3,2,12,11,17,325,29,14,25,122,33,16,24,032,27,22,77,197,36*7E
$GPGSV,3,3,12,26,37,065,36,31,48,141,35,32,09,107,,50,47,314,*7E
$GPGLL,2730.64732,S,15255.08844,E,051336.00,A,A*72
$GSENSOR,-330,988,184
$GPRMC,051337.00,A,2730.65165,S,15255.08549,E,19.020,217.55,240420,,,A*4F
$GPVTG,217.55,T,,M,19.020,N,35.225,K,A*30
$GPGGA,051337.00,2730.65165,S,15255.08549,E,1,09,0.88,31.0,M,38.4,M,,*77
$GPGSA,A,3,22,31,03,01,26,04,14,16,11,,,,1.85,0.88,1.63*08
$GPGSV,3,1,12,01,46,299,43,03,49,212,41,04,30,249,37,09,02,266,*71
$GPGSV,3,2,12,11,17,325,28,14,25,122,32,16,24,032,29,22,77,197,44*75
$GPGSV,3,3,12,26,38,065,42,31,48,141,40,32,09,107,,50,47,314,*70
$GPGLL,2730.65165,S,15255.08549,E,051337.00,A,A*76
$GSENSOR,86,1046,230
$GPRMC,051338.00,A,2730.65615,S,15255.08172,E,20.634,216.48,240420,,,A*48
$GPVTG,216.48,T,,M,20.634,N,38.214,K,A*3B
$GPGGA,051338.00,2730.65615,S,15255.08172,E,1,09,0.88,31.3,M,38.4,M,,*77
$GPGSA,A,3,22,31,03,01,26,04,14,16,11,,,,1.85,0.88,1.63*08
$GPGSV,3,1,12,01,46,299,42,03,49,212,41,04,30,249,35,09,02,266,*72
$GPGSV,3,2,12,11,17,325,36,14,25,122,31,16,24,032,30,22,77,197,44*71
$GPGSV,3,3,12,26,38,065,42,31,48,141,39,32,09,107,,50,47,314,*7E
$GPGLL,2730.65615,S,15255.08172,E,051338.00,A,A*75
$GSENSOR,112,986,318
$GPRMC,051339.00,A,2730.66155,S,15255.07852,E,22.464,204.93,240420,,,A*4D
$GPVTG,204.93,T,,M,22.464,N,41.604,K,A*30
$GPGGA,051339.00,2730.66155,S,15255.07852,E,1,09,0.88,31.6,M,38.4,M,,*77
$GPGSA,A,3,22,31,03,01,26,04,14,16,11,,,,1.85,0.88,1.63*08
$GPGSV,3,1,12,01,46,299,35,03,49,212,41,04,30,249,27,09,02,266,*71
$GPGSV,3,2,12,11,17,325,35,14,25,122,35,16,24,032,35,22,77,197,44*73
$GPGSV,3,3,12,26,38,065,42,31,48,141,41,32,09,107,,50,47,314,*71
$GPGLL,2730.66155,S,15255.07852,E,051339.00,A,A*70
$GSENSOR,228,964,150
$GPRMC,051340.00,A,2730.66782,S,15255.07640,E,24.199,193.90,240420,,,A*4D
$GPVTG,193.90,T,,M,24.199,N,44.817,K,A*36
$GPGGA,051340.00,2730.66782,S,15255.07640,E,1,09,0.88,32.0,M,38.4,M,,*7D
$GPGSA,A,3,22,31,03,01,26,04,14,16,11,,,,1.85,0.88,1.63*08
$GPGSV,3,1,12,01,46,299,25,03,49,212,37,04,30,249,38,09,02,266,*7F
$GPGSV,3,2,12,11,17,325,32,14,25,122,29,16,24,032,35,22,77,197,43*7E
$GPGSV,3,3,12,26,38,065,35,31,48,141,31,32,09,107,,50,47,314,*76
$GPGLL,2730.66782,S,15255.07640,E,051340.00,A,A*7F
$GSENSOR,294,952,88
$GPRMC,051341.00,A,2730.67473,S,15255.07524,E,25.500,186.58,240420,,,A*44
$GPVTG,186.58,T,,M,25.500,N,47.226,K,A*38
$GPGGA,051341.00,2730.67473,S,15255.07524,E,1,09,0.88,32.2,M,38.4,M,,*73
$GPGSA,A,3,22,31,03,01,26,04,14,16,11,,,,1.85,0.88,1.63*08
$GPGSV,3,1,12,01,46,299,31,03,49,212,32,04,30,249,25,09,02,266,*73
$GPGSV,3,2,12,11,17,325,26,14,25,122,36,16,24,032,33,22,77,197,42*72
$GPGSV,3,3,12,26,38,065,37,31,48,141,37,32,09,107,,50,47,314,*72
$GPGLL,2730.67473,S,15255.07524,E,051341.00,A,A*73
$GSENSOR,-78,966,88
$GPRMC,051342.00,A,2730.68196,S,15255.07449,E,26.266,185.12,240420,,,A*45
$GPVTG,185.12,T,,M,26.266,N,48.644,K,A*3E
$GPGGA,051342.00,2730.68196,S,15255.07449,E,1,09,0.88,32.3,M,38.4,M,,*7A
$GPGSA,A,3,22,31,03,01,26,04,14,16,11,,,,1.85,0.88,1.63*08
$GPGSV,3,1,12,01,46,299,32,03,49,212,36,04,30,249,23,09,02,266,*72
$GPGSV,3,2,12,11,17,325,24,14,25,122,39,16,24,032,28,22,77,197,42*75
$GPGSV,3,3,12,26,38,065,38,31,48,141,41,32,09,107,,50,47,314,*7C
$GPGLL,2730.68196,S,15255.07449,E,051342.00,A,A*7B
$GSENSOR,20,998,242
$GPRMC,051343.00,A,2730.68953,S,15255.07377,E,27.912,184.78,240420,,,A*4B
$GPVTG,184.78,T,,M,27.912,N,51.693,K,A*38
$GPGGA,051343.00,2730.68953,S,15255.07377,E,1,09,0.88,32.6,M,38.4,M,,*75
$GPGSA,A,3,22,31,03,01,26,04,14,16,11,,,,1.85,0.88,1.63*08
$GPGSV,3,1,12,01,46,299,29,03,49,212,42,04,30,249,30,09,02,266,*79
$GPGSV,3,2,12,11,17,325,22,14,25,122,36,16,24,032,36,22,77,197,42*73
$GPGSV,3,3,12,26,38,065,33,31,48,141,43,32,09,107,,50,47,314,*75
$GPGLL,2730.68953,S,15255.07377,E,051343.00,A,A*71
$GSENSOR,72,962,4
$GPRMC,051344.00,A,2730.69776,S,15255.07291,E,30.381,186.41,240420,,,A*43
$GPVTG,186.41,T,,M,30.381,N,56.265,K,A*3C
$GPGGA,051344.00,2730.69776,S,15255.07291,E,1,08,0.90,33.8,M,38.4,M,,*74
$GPGSA,A,3,22,31,03,01,26,04,14,16,,,,,1.94,0.90,1.72*01
$GPGSV,3,1,12,01,46,299,33,03,49,212,39,04,30,249,30,09,02,266,*7E
$GPGSV,3,2,12,11,17,325,,14,25,122,40,16,24,032,30,22,77,197,42*74
$GPGSV,3,3,12,26,38,065,35,31,48,141,43,32,09,107,,50,47,314,*73
$GPGLL,2730.69776,S,15255.07291,E,051344.00,A,A*77
$GSENSOR,50,950,110
$GPRMC,051345.00,A,2730.70607,S,15255.07203,E,30.041,185.14,240420,,,A*4A
$GPVTG,185.14,T,,M,30.041,N,55.637,K,A*30
$GPGGA,051345.00,2730.70607,S,15255.07203,E,1,08,0.90,34.7,M,38.4,M,,*79
$GPGSA,A,3,22,31,03,01,26,04,14,16,,,,,1.94,0.90,1.72*01
$GPGSV,3,1,12,01,46,299,35,03,49,212,40,04,30,249,24,09,02,266,*73
$GPGSV,3,2,12,11,17,325,25,14,25,122,26,16,24,032,22,22,77,197,43*71
$GPGSV,3,3,12,26,38,065,38,31,48,141,43,32,09,107,,50,47,314,*7E
$GPGLL,2730.70607,S,15255.07203,E,051345.00,A,A*72
$GSENSOR,32,990,52
$GPRMC,051346.00,A,2730.71460,S,15255.07128,E,30.717,184.44,240420,,,A*41
$GPVTG,184.44,T,,M,30.717,N,56.887,K,A*36
$GPGGA,051346.00,2730.71460,S,15255.07128,E,1,08,0.90,35.5,M,38.4,M,,*71
$GPGSA,A,3,22,31,03,01,26,04,14,16,,,,,1.94,0.90,1.72*01
$GPGSV,3,1,12,01,46,299,33,03,49,212,38,04,30,249,31,09,02,266,*7E
$GPGSV,3,2,12,11,17,325,23,14,25,122,32,16,24,032,30,22,77,197,42*70
$GPGSV,3,3,12,26,38,065,34,31,48,141,42,32,09,107,,50,47,314,*73
$GPGLL,2730.71460,S,15255.07128,E,051346.00,A,A*79
$GSENSOR,46,944,82
$GPRMC,051347.00,A,2730.72319,S,15255.07086,E,30.784,182.16,240420,,,A*44
$GPVTG,182.16,T,,M,30.784,N,57.011,K,A*3B
$GPGGA,051347.00,2730.72319,S,15255.07086,E,1,08,0.90,36.3,M,38.4,M,,*7A
$GPGSA,A,3,22,31,03,01,26,04,14,16,,,,,1.94,0.90,1.72*01
$GPGSV,3,1,12,01,46,299,29,03,49,212,34,04,30,249,25,09,02,266,*7C
$GPGSV,3,2,12,11,17,325,23,14,25,122,35,16,24,032,33,22,77,197,43*75
$GPGSV,3,3,12,26,38,065,37,31,48,141,41,32,09,107,,50,47,314,*73
$GPGLL,2730.72319,S,15255.07086,E,051347.00,A,A*77
$GSENSOR,290,950,-120
$GPRMC,051348.00,A,2730.73210,S,15255.07135,E,31.960,175.98,240420,,,A*40
$GPVTG,175.98,T,,M,31.960,N,59.191,K,A*37
$GPGGA,051348.00,2730.73210,S,15255.07135,E,1,08,0.90,37.4,M,38.4,M,,*73
$GPGSA,A,3,22,31,03,01,26,04,14,16,,,,,1.94,0.90,1.72*01
$GPGSV,3,1,12,01,46,299,40,03,49,212,29,04,30,249,25,09,02,266,*7F
$GPGSV,3,2,12,11,17,325,25,14,25,122,35,16,24,032,32,22,77,197,37*71
$GPGSV,3,3,12,26,38,065,36,31,48,141,42,32,09,107,22,50,47,314,*71
$GPGLL,2730.73210,S,15255.07135,E,051348.00,A,A*78
$GSENSOR,212,1148,-34
$GPRMC,051349.00,A,2730.74067,S,15255.07316,E,31.258,166.90,240420,,,A*4D
$GPVTG,166.90,T,,M,31.258,N,57.889,K,A*33
$GPGGA,051349.00,2730.74067,S,15255.07316,E,1,10,0.81,37.8,M,38.4,M,,*71
$GPGSA,A,3,22,31,03,01,26,04,14,16,11,32,,,1.57,0.81,1.34*0D
$GPGSV,3,1,12,01,46,299,32,03,49,212,33,04,30,249,25,09,02,266,*71
$GPGSV,3,2,12,11,17,325,24,14,25,122,26,16,24,032,25,22,77,197,38*7B
$GPGSV,3,3,12,26,38,065,34,31,48,141,42,32,09,107,30,50,47,314,*70
$GPGLL,2730.74067,S,15255.07316,E,051349.00,A,A*7F
$GSENSOR,280,846,114
$GPRMC,051350.00,A,2730.74851,S,15255.07705,E,30.568,153.23,240420,,,A*45
$GPVTG,153.23,T,,M,30.568,N,56.613,K,A*34
$GPGGA,051350.00,2730.74851,S,15255.07705,E,1,10,0.81,38.9,M,38.4,M,,*7C
$GPGSA,A,3,22,31,03,01,26,04,14,16,11,32,,,1.57,0.81,1.34*0D
$GPGSV,3,1,12,01,46,299,39,03,49,212,33,04,30,249,34,09,02,266,*7A
$GPGSV,3,2,12,11,17,325,22,14,25,122,26,16,24,032,35,22,77,197,43*70
$GPGSV,3,3,12,26,38,065,36,31,48,141,42,32,09,107,24,50,47,314,*77
$GPGLL,2730.74851,S,15255.07705,E,051350.00,A,A*7C
$GSENSOR,328,942,62
$GPRMC,051351.00,A,2730.75535,S,15255.08271,E,30.667,141.10,240420,,,A*4C
$GPVTG,141.10,T,,M,30.667,N,56.796,K,A*37
$GPGGA,051351.00,2730.75535,S,15255.08271,E,1,09,0.84,39.9,M,38.4,M,,*76
$GPGSA,A,3,22,31,03,01,26,04,14,16,32,,,,1.65,0.84,1.42*08
$GPGSV,3,1,12,01,46,299,37,03,49,212,40,04,30,249,37,09,02,266,*73
$GPGSV,3,2,12,11,17,325,29,14,25,122,31,16,24,032,25,22,77,197,36*7E
$GPGSV,3,3,12,26,38,065,32,31,48,141,43,32,09,107,26,50,47,314,*70
$GPGLL,2730.75535,S,15255.08271,E,051351.00,A,A*7A
$GSENSOR,262,1048,72
$GPRMC,051352.00,A,2730.76138,S,15255.08961,E,31.036,130.84,240420,,,A*47
$GPVTG,130.84,T,,M,31.036,N,57.479,K,A*3C
$GPGGA,051352.00,2730.76138,S,15255.08961,E,1,10,0.81,40.4,M,38.4,M,,*7B
$GPGSA,A,3,22,31,03,01,26,04,14,16,11,32,,,1.57,0.81,1.34*0D
$GPGSV,3,1,12,01,46,299,39,03,49,212,38,04,30,249,32,09,02,266,*77
$GPGSV,3,2,12,11,17,325,29,14,25,122,39,16,24,032,34,22,77,197,34*74
$GPGSV,3,3,12,26,38,065,40,31,48,141,42,32,09,107,26,50,47,314,*74
$GPGLL,2730.76138,S,15255.08961,E,051352.00,A,A*79
$GSENSOR,98,996,180
$GPRMC,051353.00,A,2730.76657,S,15255.09749,E,31.246,126.11,240420,,,A*43
$GPVTG,126.11,T,,M,31.246,N,57.868,K,A*3E
$GPGGA,051353.00,2730.76657,S,15255.09749,E,1,10,0.81,41.2,M,38.4,M,,*76
$GPGSA,A,3,22,31,03,01,26,04,14,16,11,32,,,1.57,0.81,1.34*0D
$GPGSV,3,1,12,01,46,299,39,03,49,212,33,04,30,249,33,09,02,266,*7D
$GPGSV,3,2,12,11,17,325,29,14,25,122,37,16,24,032,35,22,77,197,34*7B
$GPGSV,3,3,12,26,38,065,39,31,48,141,43,32,09,107,26,50,47,314,*7B
$GPGLL,2730.76657,S,15255.09749,E,051353.00,A,A*73
$GSENSOR,2,956,58
$GPRMC,051354.00,A,2730.77166,S,15255.10548,E,31.361,125.12,240420,,,A*4F
$GPVTG,125.12,T,,M,31.361,N,58.081,K,A*3A
$GPGGA,051354.00,2730.77166,S,15255.10548,E,1,10,0.81,41.7,M,38.4,M,,*7B
$GPGSA,A,3,22,31,03,01,26,04,14,16,11,32,,,1.57,0.81,1.34*0D
$GPGSV,3,1,12,01,46,299,37,03,49,212,36,04,30,249,30,09,02,266,*75
$GPGSV,3,2,12,11,17,325,24,14,25,122,37,16,24,032,39,22,77,197,36*78
$GPGSV,3,3,12,26,38,065,35,31,48,141,43,32,09,107,25,50,47,314,38*7F
$GPGLL,2730.77166,S,15255.10548,E,051354.00,A,A*7B
$GSENSOR,-168,934,-14
$GPRMC,051355.00,A,2730.77657,S,15255.11354,E,31.204,124.41,240420,,,A*44
$GPVTG,124.41,T,,M,31.204,N,57.790,K,A*37
$GPGGA,051355.00,2730.77657,S,15255.11354,E,1,08,0.90,42.0,M,38.4,M,,*78
$GPGSA,A,3,22,31,03,01,26,04,14,16,,,,,1.94,0.90,1.72*01
$GPGSV,3,1,12,01,46,299,35,03,49,212,33,04,30,249,30,09,02,266,*72
$GPGSV,3,2,12,11,17,325,27,14,25,122,37,16,24,032,39,22,77,197,40*7A
$GPGSV,3,3,12,26,38,065,38,31,48,141,45,32,09,107,25,50,47,314,33*7F
$GPGLL,2730.77657,S,15255.11354,E,051355.00,A,A*75
$GSENSOR,-38,950,-18
$GPRMC,051356.00,A,2730.78148,S,15255.12174,E,31.444,123.50,240420,,,A*47
$GPVTG,123.50,T,,M,31.444,N,58.234,K,A*36
$GPGGA,051356.00,2730.78148,S,15255.12174,E,1,09,0.88,41.9,M,38.4,M,,*7C
$GPGSA,A,3,22,31,03,01,26,04,14,16,11,,,,1.85,0.88,1.63*08
$GPGSV,3,1,12,01,46,299,38,03,49,212,28,04,30,249,29,09,02,266,*7D
$GPGSV,3,2,12,11,17,325,27,14,25,122,39,16,24,032,26,22,77,197,39*74
$GPGSV,3,3,12,26,38,065,35,31,48,141,41,32,09,107,22,50,47,314,33*71
$GPGLL,2730.78148,S,15255.12174,E,051356.00,A,A*73
$GSENSOR,-26,1000,10
$GPRMC,051357.00,A,2730.78646,S,15255.12995,E,31.913,123.20,240420,,,A*40
$GPVTG,123.20,T,,M,31.913,N,59.102,K,A*39
$GPGGA,051357.00,2730.78646,S,15255.12995,E,1,09,0.88,41.5,M,38.4,M,,*7F
$GPGSA,A,3,22,31,03,01,26,04,14,16,11,,,,1.85,0.88,1.63*08
$GPGSV,3,1,12,01,46,299,38,03,49,212,31,04,30,249,28,09,02,266,*74
$GPGSV,3,2,12,11,17,325,26,14,25,122,36,16,24,032,25,22,77,197,36*76
$GPGSV,3,3,12,26,38,065,39,31,48,141,42,32,09,107,23,50,47,314,33*7F
$GPGLL,2730.78646,S,15255.12995,E,051357.00,A,A*7C
$GSENSOR,-48,1056,36
$GPRMC,051358.00,A,2730.79138,S,15255.13841,E,32.394,123.01,240420,,,A*4C
$GPVTG,123.01,T,,M,32.394,N,59.994,K,A*3B
$GPGGA,051358.00,2730.79138,S,15255.13841,E,1,09,0.88,41.5,M,38.4,M,,*76
$GPGSA,A,3,22,31,03,01,26,04,14,16,11,,,,1.85,0.88,1.63*08
$GPGSV,3,1,12,01,46,299,40,03,49,212,35,04,30,249,28,09,02,266,*7F
$GPGSV,3,2,12,11,17,325,26,14,25,122,40,16,24,032,32,22,77,197,40*70
$GPGSV,3,3,12,26,38,065,35,31,48,141,38,32,09,107,23,50,47,314,35*78
$GPGLL,2730.79138,S,15255.13841,E,051358.00,A,A*75
$GSENSOR,-54,1024,6
$GPRMC,051359.00,A,2730.79658,S,15255.14667,E,32.307,125.21,240420,,,A*4F
$GPVTG,125.21,T,,M,32.307,N,59.833,K,A*39
$GPGGA,051359.00,2730.79658,S,15255.14667,E,1,10,0.81,41.1,M,38.4,M,,*7E
$GPGSA,A,3,22,31,03,01,26,04,14,16,11,32,,,1.57,0.81,1.34*0D
$GPGSV,3,1,12,01,46,299,39,03,49,212,32,04,30,249,27,09,02,266,*79
$GPGSV,3,2,12,11,17,325,25,14,25,122,39,16,24,032,35,22,77,197,37*7A
$GPGSV,3,3,12,26,38,065,39,31,48,141,44,32,09,107,29,50,47,314,35*75
$GPGLL,2730.79658,S,15255.14667,E,051359.00,A,A*78
$GSENSOR,-78,970,-10
$GPRMC,051400.00,A,2730.80189,S,15255.15473,E,31.999,126.77,240420,,,A*41
$GPVTG,126.77,T,,M,31.999,N,59.261,K,A*3A
$GPGGA,051400.00,2730.80189,S,15255.15473,E,1,09,0.84,40.9,M,38.4,M,,*7A
$GPGSA,A,3,22,31,03,01,26,04,14,16,32,,,,1.65,0.84,1.42*08
$GPGSV,3,1,12,01,46,299,37,03,49,212,36,04,30,249,27,09,02,266,*73
$GPGSV,3,2,12,11,17,325,22,14,25,122,37,16,24,032,27,22,77,197,40*70
$GPGSV,3,3,12,26,38,065,29,31,48,141,43,32,09,107,27,50,47,314,35*7D
$GPGLL,2730.80189,S,15255.15473,E,051400.00,A,A*78
$GSENSOR,-100,1002,-34
$GPRMC,051401.00,A,2730.80748,S,15255.16242,E,31.709,128.59,240420,,,A*49
$GPVTG,128.59,T,,M,31.709,N,58.725,K,A*3B
$GPGGA,051401.00,2730.80748,S,15255.16242,E,1,09,0.90,40.2,M,38.4,M,,*79
$GPGSA,A,3,22,31,03,01,26,04,14,16,32,,,,1.94,0.90,1.72*00
$GPGSV,3,1,12,01,46,299,37,03,49,212,38,04,30,249,31,09,02,266,*7A
$GPGSV,3,2,12,11,17,325,24,14,25,122,36,16,24,032,26,22,77,197,37*76
$GPGSV,3,3,12,26,38,065,34,31,48,141,42,32,09,107,26,50,47,314,35*71
$GPGLL,2730.80748,S,15255.16242,E,051401.00,A,A*75
$GSENSOR,-138,862,-66
$GPRMC,051402.00,A,2730.81363,S,15255.16958,E,31.881,133.58,240420,,,A*42
$GPVTG,133.58,T,,M,31.881,N,59.044,K,A*3E
$GPGGA,051402.00,2730.81363,S,15255.16958,E,1,09,0.84,39.3,M,38.4,M,,*7C
$GPGSA,A,3,22,31,03,01,26,04,14,16,32,,,,1.65,0.84,1.42*08
$GPGSV,3,1,12,01,46,299,39,03,49,212,33,04,30,249,31,09,02,266,*7F
$GPGSV,3,2,12,11,17,325,23,14,25,122,37,16,24,032,25,22,77,197,40*73
$GPGSV,3,3,12,26,38,065,34,31,48,141,42,32,09,107,26,50,47,314,37*73
$GPGLL,2730.81363,S,15255.16958,E,051402.00,A,A*7A
$GSENSOR,-176,1052,-30
$GPRMC,051403.00,A,2730.82024,S,15255.17632,E,32.026,138.66,240420,,,A*42
$GPVTG,138.66,T,,M,32.026,N,59.313,K,A*3F
$GPGGA,051403.00,2730.82024,S,15255.17632,E,1,10,0.81,38.1,M,38.4,M,,*72
$GPGSA,A,3,22,31,03,01,26,04,14,16,11,32,,,1.56,0.81,1.34*0C
$GPGSV,3,1,12,01,46,299,30,03,49,212,31,04,30,249,37,09,02,266,*72
$GPGSV,3,2,12,11,17,325,30,14,25,122,36,16,24,032,31,22,77,197,41*74
$GPGSV,3,3,12,26,38,065,39,31,48,141,41,32,09,107,25,50,47,314,37*7E
$GPGLL,2730.82024,S,15255.17632,E,051403.00,A,A*7A
$GSENSOR,-64,984,28
$GPRMC,051404.00,A,2730.82730,S,15255.18256,E,32.394,143.60,240420,,,A*4E
$GPVTG,143.60,T,,M,32.394,N,59.994,K,A*3A
$GPGGA,051404.00,2730.82730,S,15255.18256,E,1,10,0.81,37.1,M,38.4,M,,*71
$GPGSA,A,3,22,31,03,01,26,04,14,16,11,32,,,1.56,0.81,1.34*0C
$GPGSV,3,1,12,01,46,299,29,03,49,212,38,04,30,248,26,09,02,266,*72
$GPGSV,3,2,12,11,17,325,22,14,25,122,30,16,24,032,35,22,77,197,40*74
