$GPRMC,072434.00,A,2730.40335,S,15254.68717,E,22.504,99.57,220420,,,A*7F
$GPVTG,99.57,T,,M,22.504,N,41.678,K,A*02
$GPGGA,072434.00,2730.40335,S,15254.68717,E,1,08,1.06,38.8,M,38.5,M,,*7A
$GPGSA,A,3,03,04,16,22,09,26,07,27,,,,,2.17,1.06,1.90*06
$GPGSV,4,1,14,01,05,345,22,03,67,352,39,04,57,182,32,06,06,238,*76
$GPGSV,4,2,14,07,24,285,34,08,05,028,,09,33,223,28,16,53,103,38*7C
$GPGSV,4,3,14,22,40,012,37,23,45,212,33,26,29,132,37,27,09,058,27*76
$GPGSV,4,4,14,31,02,126,,50,47,313,*7E
$GPGLL,2730.40335,S,15254.68717,E,072434.00,A,A*7D
$GSENSOR,160,760,4
$GPRMC,072435.00,A,2730.40452,S,15254.69473,E,25.508,99.86,220420,,,A*7F
$GPVTG,99.86,T,,M,25.508,N,47.241,K,A*0D
$GPGGA,072435.00,2730.40452,S,15254.69473,E,1,08,1.06,39.1,M,38.5,M,,*75
$GPGSA,A,3,03,04,16,22,09,26,07,27,,,,,2.17,1.06,1.90*06
$GPGSV,4,1,14,01,05,345,22,03,67,352,39,04,57,181,31,06,06,238,*76
$GPGSV,4,2,14,07,24,285,31,08,05,028,19,09,33,223,30,16,53,103,37*77
$GPGSV,4,3,14,22,40,012,36,23,45,212,36,26,29,132,36,27,09,058,25*71
$GPGSV,4,4,14,31,02,126,18,50,47,313,38*7C
$GPGLL,2730.40452,S,15254.69473,E,072435.00,A,A*7A
$GSENSOR,-110,1134,146
$GPRMC,072436.00,A,2730.40574,S,15254.70264,E,25.718,100.26,220420,,,A*49
$GPVTG,100.26,T,,M,25.718,N,47.630,K,A*37
$GPGGA,072436.00,2730.40574,S,15254.70264,E,1,08,1.06,39.1,M,38.5,M,,*7B
$GPGSA,A,3,03,04,16,22,09,26,07,27,,,,,2.17,1.06,1.90*06
$GPGSV,4,1,14,01,05,345,21,03,67,352,40,04,57,181,31,06,06,238,*7B
$GPGSV,4,2,14,07,24,285,30,08,05,028,18,09,33,223,34,16,53,103,37*73
$GPGSV,4,3,14,22,40,012,35,23,45,212,38,26,29,132,36,27,09,058,26*7F
$GPGSV,4,4,14,31,02,126,18,50,47,313,37*73
$GPGLL,2730.40574,S,15254.70264,E,072436.00,A,A*74
$GSENSOR,-90,1100,130
$GPRMC,072437.00,A,2730.40700,S,15254.71060,E,25.860,100.06,220420,,,A*4C
$GPVTG,100.06,T,,M,25.860,N,47.893,K,A*32
$GPGGA,072437.00,2730.40700,S,15254.71060,E,1,08,1.06,39.1,M,38.5,M,,*7C
$GPGSA,A,3,03,04,16,22,09,26,07,27,,,,,2.17,1.06,1.90*06
$GPGSV,4,1,14,01,05,345,20,03,67,352,39,04,57,181,32,06,06,239,*76
$GPGSV,4,2,14,07,24,285,31,08,05,028,18,09,33,223,35,16,53,103,37*73
$GPGSV,4,3,14,22,40,012,36,23,45,212,39,26,29,132,37,27,09,058,35*7E
$GPGSV,4,4,14,31,02,126,19,50,47,313,38*7D
$GPGLL,2730.40700,S,15254.71060,E,072437.00,A,A*73
$GSENSOR,10,932,68
$GPRMC,072438.00,A,2730.40830,S,15254.71860,E,26.057,100.15,220420,,,A*4A
$GPVTG,100.15,T,,M,26.057,N,48.257,K,A*32
$GPGGA,072438.00,2730.40830,S,15254.71860,E,1,08,1.06,39.0,M,38.5,M,,*76
$GPGSA,A,3,03,04,16,22,09,26,07,27,,,,,2.17,1.06,1.90*06
$GPGSV,4,1,14,01,05,345,18,03,67,352,41,04,57,181,31,06,06,239,*71
$GPGSV,4,2,14,07,24,284,24,08,05,028,15,09,33,223,35,16,53,103,36*7A
$GPGSV,4,3,14,22,40,012,40,23,45,212,40,26,29,132,37,27,09,058,26*73
$GPGSV,4,4,14,31,02,126,18,50,47,313,38*7C
$GPGLL,2730.40830,S,15254.71860,E,072438.00,A,A*78
$GSENSOR,-30,1146,-144
$GPRMC,072439.00,A,2730.40961,S,15254.72670,E,26.483,99.87,220420,,,A*75
$GPVTG,99.87,T,,M,26.483,N,49.047,K,A*07
$GPGGA,072439.00,2730.40961,S,15254.72670,E,1,09,0.90,38.5,M,38.5,M,,*75
$GPGSA,A,3,03,04,16,22,09,26,07,27,08,,,,1.60,0.90,1.33*0A
$GPGSV,4,1,14,01,05,345,17,03,67,352,41,04,57,181,33,06,06,239,24*7A
$GPGSV,4,2,14,07,24,284,26,08,05,029,18,09,33,223,32,16,53,103,35*70
$GPGSV,4,3,14,22,40,012,40,23,45,212,40,26,29,132,38,27,09,058,37*7C
$GPGSV,4,4,14,31,02,126,17,50,47,313,38*73
$GPGLL,2730.40961,S,15254.72670,E,072439.00,A,A*70
$GSENSOR,122,966,308
$GPRMC,072440.00,A,2730.41087,S,15254.73494,E,26.885,99.98,220420,,,A*76
$GPVTG,99.98,T,,M,26.885,N,49.790,K,A*0E
$GPGGA,072440.00,2730.41087,S,15254.73494,E,1,09,1.06,37.6,M,38.5,M,,*70
$GPGSA,A,3,03,04,16,22,09,26,07,27,08,,,,2.17,1.06,1.90*0E
$GPGSV,4,1,14,01,05,345,18,03,67,352,37,04,57,181,32,06,06,239,21*70
$GPGSV,4,2,14,07,24,284,29,08,05,029,22,09,33,223,32,16,53,103,34*77
$GPGSV,4,3,14,22,40,012,37,23,45,212,39,26,29,132,37,27,09,058,36*7C
$GPGSV,4,4,14,31,02,126,16,50,47,313,38*72
$GPGLL,2730.41087,S,15254.73494,E,072440.00,A,A*77
$GSENSOR,14,1010,28
$GPRMC,072441.00,A,2730.41216,S,15254.74334,E,27.540,100.20,220420,,,A*40
$GPVTG,100.20,T,,M,27.540,N,51.004,K,A*3A
$GPGGA,072441.00,2730.41216,S,15254.74334,E,1,08,1.06,36.5,M,38.5,M,,*72
$GPGSA,A,3,03,04,16,22,09,26,07,27,,,,,2.17,1.06,1.90*06
$GPGSV,4,1,14,01,05,345,18,03,67,352,39,04,57,181,33,06,06,239,*7C
$GPGSV,4,2,14,07,24,284,34,08,05,029,,09,33,223,31,16,53,103,35*79
$GPGSV,4,3,14,22,40,012,33,23,45,212,39,26,29,132,37,27,09,058,35*7B
$GPGSV,4,4,14,31,02,126,15,50,47,313,38*71
$GPGLL,2730.41216,S,15254.74334,E,072441.00,A,A*76
$GSENSOR,26,970,-232
$GPRMC,072442.00,A,2730.41344,S,15254.75209,E,28.658,99.58,220420,,,A*70
$GPVTG,99.58,T,,M,28.658,N,53.074,K,A*04
$GPGGA,072442.00,2730.41344,S,15254.75209,E,1,08,1.06,35.3,M,38.5,M,,*7C
$GPGSA,A,3,03,04,16,22,09,26,07,27,,,,,2.17,1.06,1.90*06
$GPGSV,4,1,14,01,05,345,28,03,67,352,38,04,57,181,35,06,06,239,*78
$GPGSV,4,2,14,07,24,284,33,08,05,029,26,09,33,223,31,16,53,103,35*7A
$GPGSV,4,3,14,22,40,012,34,23,45,212,41,26,29,132,30,27,09,058,26*76
$GPGSV,4,4,14,31,02,126,12,50,47,313,35*7B
$GPGLL,2730.41344,S,15254.75209,E,072442.00,A,A*7D
$GSENSOR,308,1424,318
$GPRMC,072443.00,A,2730.41477,S,15254.76098,E,28.885,99.59,220420,,,A*70
$GPVTG,99.59,T,,M,28.885,N,53.495,K,A*00
$GPGGA,072443.00,2730.41477,S,15254.76098,E,1,08,1.06,34.1,M,38.5,M,,*70
$GPGSA,A,3,03,04,16,22,09,26,07,27,,,,,2.17,1.06,1.90*06
$GPGSV,4,1,14,01,05,345,20,03,67,352,36,04,57,181,35,06,06,239,*7E
$GPGSV,4,2,14,07,24,284,33,08,05,029,22,09,33,223,31,16,53,103,35*7E
$GPGSV,4,3,14,22,40,012,36,23,45,212,42,26,29,132,30,27,09,058,24*75
$GPGSV,4,4,14,31,02,126,12,50,47,313,37*79
$GPGLL,2730.41477,S,15254.76098,E,072443.00,A,A*72
$GSENSOR,66,892,-374
$GPRMC,072444.00,A,2730.41609,S,15254.77000,E,29.360,99.39,220420,,,A*7B
$GPVTG,99.39,T,,M,29.360,N,54.374,K,A*08
$GPGGA,072444.00,2730.41609,S,15254.77000,E,1,09,1.06,32.8,M,38.5,M,,*72
$GPGSA,A,3,03,04,16,22,09,26,07,27,08,,,,2.17,1.06,1.90*0E
$GPGSV,4,1,14,01,05,345,17,03,67,352,38,04,57,181,31,06,06,239,*70
$GPGSV,4,2,14,07,24,284,33,08,05,029,20,09,33,223,26,16,53,103,35*7A
$GPGSV,4,3,14,22,40,012,37,23,45,212,34,26,29,132,36,27,09,058,22*75
$GPGSV,4,4,14,31,02,126,13,50,47,313,31*7E
$GPGLL,2730.41609,S,15254.77000,E,072444.00,A,A*7E
$GSENSOR,-108,1058,92
$GPRMC,072445.00,A,2730.41743,S,15254.77897,E,28.904,99.90,220420,,,A*79
$GPVTG,99.90,T,,M,28.904,N,53.530,K,A*03
$GPGGA,072445.00,2730.41743,S,15254.77897,E,1,09,1.06,31.8,M,38.5,M,,*79
$GPGSA,A,3,03,04,16,22,09,26,07,27,08,,,,2.17,1.06,1.90*0E
$GPGSV,4,1,14,01,05,345,16,03,67,352,42,04,57,181,31,06,06,239,*7C
$GPGSV,4,2,14,07,24,284,28,08,05,029,16,09,33,223,26,16,53,103,37*77
$GPGSV,4,3,14,22,40,012,31,23,45,212,37,26,29,132,37,27,09,058,21*72
$GPGSV,4,4,14,31,02,126,11,50,47,313,37*7A
$GPGLL,2730.41743,S,15254.77897,E,072445.00,A,A*76
$GSENSOR,-46,1150,-140
$GPRMC,072446.00,A,2730.41882,S,15254.78770,E,28.309,99.73,220420,,,A*7B
$GPVTG,99.73,T,,M,28.309,N,52.428,K,A*00
$GPGGA,072446.00,2730.41882,S,15254.78770,E,1,09,1.06,31.2,M,38.5,M,,*7B
$GPGSA,A,3,03,04,16,22,09,26,07,27,08,,,,2.17,1.06,1.90*0E
$GPGSV,4,1,14,01,05,345,14,03,67,352,35,04,57,181,32,06,06,239,*7D
$GPGSV,4,2,14,07,24,284,27,08,05,029,18,09,33,223,35,16,53,103,35*76
$GPGSV,4,3,14,22,40,012,26,23,45,212,39,26,29,132,37,27,09,058,24*7F
$GPGSV,4,4,14,31,02,126,09,50,47,313,35*71
$GPGLL,2730.41882,S,15254.78770,E,072446.00,A,A*7E
$GSENSOR,-98,1006,122
$GPRMC,072447.00,A,2730.42012,S,15254.79635,E,27.918,99.59,220420,,,A*74
$GPVTG,99.59,T,,M,27.918,N,51.705,K,A*02
$GPGGA,072447.00,2730.42012,S,15254.79635,E,1,09,1.06,30.6,M,38.5,M,,*7C
$GPGSA,A,3,03,04,16,22,09,26,07,27,08,,,,2.17,1.06,1.90*0E
$GPGSV,4,1,14,01,05,345,12,03,67,352,38,04,57,181,32,06,06,239,19*7E
$GPGSV,4,2,14,07,24,284,26,08,05,029,28,09,33,223,33,16,53,104,35*75
$GPGSV,4,3,14,22,40,012,38,23,45,212,38,26,29,132,37,27,09,058,27*72
$GPGSV,4,4,14,31,02,126,,50,47,313,27*7B
$GPGLL,2730.42012,S,15254.79635,E,072447.00,A,A*7C
$GSENSOR,-66,1052,48
$GPRMC,072448.00,A,2730.42151,S,15254.80490,E,27.623,99.90,220420,,,A*74
$GPVTG,99.90,T,,M,27.623,N,51.159,K,A*0F
$GPGGA,072448.00,2730.42151,S,15254.80490,E,1,07,1.06,30.8,M,38.5,M,,*7E
$GPGSA,A,3,03,04,16,22,09,26,07,,,,,,2.17,1.06,1.90*03
$GPGSV,4,1,14,01,05,345,09,03,67,352,39,04,57,181,31,06,06,239,16*79
$GPGSV,4,2,14,07,24,284,31,08,05,029,,09,33,223,33,16,53,104,36*7A
$GPGSV,4,3,14,22,40,012,38,23,45,212,37,26,29,132,36,27,09,058,21*7A
$GPGSV,4,4,14,31,02,126,,50,47,313,37*7A
$GPGLL,2730.42151,S,15254.80490,E,072448.00,A,A*7E
$GSENSOR,0,924,84
$GPRMC,072449.00,A,2730.42290,S,15254.81338,E,27.457,99.99,220420,,,A*77
$GPVTG,99.99,T,,M,27.457,N,50.850,K,A*06
$GPGGA,072449.00,2730.42290,S,15254.81338,E,1,07,1.06,31.1,M,38.5,M,,*7D
$GPGSA,A,3,03,04,16,22,09,26,07,,,,,,2.17,1.06,1.90*03
$GPGSV,4,1,14,01,05,345,14,03,67,352,38,04,57,181,32,06,06,239,*70
$GPGSV,4,2,14,07,24,284,32,08,05,029,,09,33,223,35,16,53,104,37*7E
$GPGSV,4,3,14,22,40,012,32,23,45,212,35,26,29,132,37,27,09,058,28*7A
$GPGSV,4,4,14,31,02,126,,50,47,313,37*7A
$GPGLL,2730.42290,S,15254.81338,E,072449.00,A,A*75
$GSENSOR,-66,974,68
$GPRMC,072450.00,A,2730.42420,S,15254.82184,E,27.356,99.79,220420,,,A*7C
$GPVTG,99.79,T,,M,27.356,N,50.663,K,A*00
$GPGGA,072450.00,2730.42420,S,15254.82184,E,1,07,1.06,31.2,M,38.5,M,,*7D
$GPGSA,A,3,03,04,16,22,09,26,07,,,,,,2.17,1.06,1.90*03
$GPGSV,4,1,14,01,05,345,15,03,67,352,38,04,57,181,31,06,06,239,*72
$GPGSV,4,2,14,07,24,284,33,08,05,029,,09,33,223,35,16,53,104,37*7F
$GPGSV,4,3,14,22,40,012,37,23,45,212,36,26,29,132,24,27,09,058,29*7F
$GPGSV,4,4,14,31,02,126,,50,47,313,37*7A
$GPGLL,2730.42420,S,15254.82184,E,072450.00,A,A*76
$GSENSOR,74,908,0
$GPRMC,072451.00,A,2730.42545,S,15254.83026,E,27.136,99.74,220420,,,A*7E
$GPVTG,99.74,T,,M,27.136,N,50.256,K,A*0B
$GPGGA,072451.00,2730.42545,S,15254.83026,E,1,07,1.05,31.1,M,38.5,M,,*76
$GPGSA,A,3,03,04,16,22,09,26,07,,,,,,2.17,1.05,1.90*00
$GPGSV,4,1,14,01,05,345,18,03,67,352,38,04,57,181,24,06,06,239,*7B
$GPGSV,4,2,14,07,24,284,33,08,05,029,,09,33,223,26,16,53,104,37*7D
$GPGSV,4,3,14,22,40,012,37,23,45,212,31,26,29,132,23,27,09,058,28*7E
$GPGSV,4,4,14,31,02,126,,50,47,313,37*7A
$GPGLL,2730.42545,S,15254.83026,E,072451.00,A,A*7D
$GSENSOR,-10,954,114
$GPRMC,072452.00,A,2730.42672,S,15254.83860,E,27.007,100.03,220420,,,A*42
$GPVTG,100.03,T,,M,27.007,N,50.017,K,A*3E
$GPGGA,072452.00,2730.42672,S,15254.83860,E,1,07,1.05,31.3,M,38.5,M,,*7A
$GPGSA,A,3,03,04,16,22,09,26,07,,,,,,2.17,1.05,1.90*00
$GPGSV,4,1,14,01,05,345,16,03,67,352,38,04,57,181,23,06,06,239,*72
$GPGSV,4,2,14,07,24,284,34,08,05,029,,09,33,223,25,16,53,104,36*78
$GPGSV,4,3,14,22,40,012,35,23,45,212,26,26,29,132,29,27,09,058,36*7F
$GPGSV,4,4,14,31,02,126,,50,47,313,37*7A
$GPGLL,2730.42672,S,15254.83860,E,072452.00,A,A*73
$GSENSOR,118,750,84
$GPRMC,072453.00,A,2730.42803,S,15254.84684,E,26.739,100.48,220420,,,A*4C
$GPVTG,100.48,T,,M,26.739,N,49.521,K,A*32
$GPGGA,072453.00,2730.42803,S,15254.84684,E,1,07,1.05,31.7,M,38.5,M,,*74
$GPGSA,A,3,03,04,16,22,09,26,07,,,,,,2.17,1.05,1.90*00
$GPGSV,4,1,14,01,05,345,14,03,67,352,38,04,57,181,31,06,06,239,*73
$GPGSV,4,2,14,07,24,284,33,08,05,029,15,09,33,223,26,16,53,104,38*76
$GPGSV,4,3,14,22,40,012,34,23,45,212,33,26,29,132,29,27,09,058,29*74
$GPGSV,4,4,14,31,02,126,,50,47,313,37*7A
$GPGLL,2730.42803,S,15254.84684,E,072453.00,A,A*79
$GSENSOR,-106,1114,-74
$GPRMC,072454.00,A,2730.42920,S,15254.85501,E,26.573,98.70,220420,,,A*73
$GPVTG,98.70,T,,M,26.573,N,49.212,K,A*02
$GPGGA,072454.00,2730.42920,S,15254.85501,E,1,08,1.05,32.3,M,38.5,M,,*74
$GPGSA,A,3,03,04,16,22,09,26,07,27,,,,,2.17,1.05,1.90*05
$GPGSV,4,1,14,01,05,345,14,03,67,352,40,04,57,181,25,06,06,239,*79
$GPGSV,4,2,14,07,24,284,38,08,05,029,17,09,33,223,30,16,53,104,40*77
$GPGSV,4,3,14,22,40,012,34,23,45,212,28,26,29,132,36,27,09,058,28*71
$GPGSV,4,4,14,31,02,126,,50,47,313,37*7A
$GPGLL,2730.42920,S,15254.85501,E,072454.00,A,A*71
$GSENSOR,0,1036,108
$GPRMC,072455.00,A,2730.43041,S,15254.86300,E,25.722,99.41,220420,,,A*7F
$GPVTG,99.41,T,,M,25.722,N,47.637,K,A*09
$GPGGA,072455.00,2730.43041,S,15254.86300,E,1,08,1.05,33.0,M,38.5,M,,*7C
$GPGSA,A,3,03,04,16,22,09,26,07,27,,,,,2.17,1.05,1.90*05
$GPGSV,4,1,14,01,05,345,11,03,67,352,37,04,57,181,34,06,06,239,*7C
$GPGSV,4,2,14,07,24,284,39,08,05,029,16,09,33,223,36,16,53,104,40*71
$GPGSV,4,3,14,22,40,012,31,23,45,212,36,26,29,132,37,27,09,058,18*79
$GPGSV,4,4,14,31,02,126,,50,47,313,34*79
$GPGLL,2730.43041,S,15254.86300,E,072455.00,A,A*7B
$GSENSOR,34,1150,40
$GPRMC,072456.00,A,2730.43163,S,15254.87041,E,24.025,100.17,220420,,,A*49
$GPVTG,100.17,T,,M,24.025,N,44.494,K,A*32
$GPGGA,072456.00,2730.43163,S,15254.87041,E,1,09,1.05,34.6,M,38.5,M,,*79
$GPGSA,A,3,03,04,16,22,09,26,07,27,08,,,,2.17,1.05,1.90*0D
$GPGSV,4,1,14,01,05,345,16,03,67,352,42,04,57,181,34,06,06,239,*79
$GPGSV,4,2,14,07,24,284,39,08,05,029,15,09,33,223,36,16,53,104,40*72
$GPGSV,4,3,14,22,40,012,37,23,45,212,36,26,29,132,35,27,09,058,21*77
$GPGSV,4,4,14,31,02,126,,50,47,313,30*7D
$GPGLL,2730.43163,S,15254.87041,E,072456.00,A,A*7E
$GSENSOR,-70,984,-56
$GPRMC,072457.00,A,2730.43260,S,15254.87700,E,20.567,98.50,220420,,,A*7E
$GPVTG,98.50,T,,M,20.567,N,38.090,K,A*0D
$GPGGA,072457.00,2730.43260,S,15254.87700,E,1,09,1.05,35.8,M,38.5,M,,*75
$GPGSA,A,3,03,04,16,22,09,26,07,27,08,,,,2.17,1.05,1.90*0D
$GPGSV,4,1,14,01,05,345,18,03,67,352,42,04,57,181,35,06,06,239,*76
$GPGSV,4,2,14,07,24,284,39,08,05,029,15,09,33,223,35,16,53,104,40*71
$GPGSV,4,3,14,22,40,012,36,23,45,212,37,26,29,132,38,27,09,058,25*7E
$GPGSV,4,4,14,31,02,126,,50,47,313,33*7E
$GPGLL,2730.43260,S,15254.87700,E,072457.00,A,A*7D
$GSENSOR,-62,1056,-188
$GPRMC,072458.00,A,2730.43315,S,15254.88241,E,16.236,96.18,220420,,,A*79
$GPVTG,96.18,T,,M,16.236,N,30.069,K,A*07
$GPGGA,072458.00,2730.43315,S,15254.88241,E,1,09,1.05,36.8,M,38.5,M,,*75
$GPGSA,A,3,03,04,16,22,09,26,07,27,08,,,,2.17,1.05,1.90*0D
$GPGSV,4,1,14,01,05,345,20,03,67,352,42,04,57,181,32,06,06,239,*7A
$GPGSV,4,2,14,07,24,284,32,08,05,029,17,09,33,223,38,16,53,104,40*75
$GPGSV,4,3,14,22,40,012,35,23,45,212,34,26,29,132,38,27,09,059,34*7F
$GPGSV,4,4,14,31,02,126,,50,47,313,35*78
$GPGLL,2730.43315,S,15254.88241,E,072458.00,A,A*7E
$GSENSOR,-4,1000,-34
$GPRMC,072459.00,A,2730.43328,S,15254.88636,E,11.333,91.38,220420,,,A*74
$GPVTG,91.38,T,,M,11.333,N,20.988,K,A*06
$GPGGA,072459.00,2730.43328,S,15254.88636,E,1,09,0.90,37.3,M,38.5,M,,*79
$GPGSA,A,3,03,04,16,22,09,26,07,27,08,,,,1.60,0.90,1.33*0A
$GPGSV,4,1,14,01,05,345,21,03,67,352,43,04,57,181,30,06,06,239,*78
$GPGSV,4,2,14,07,24,284,28,08,05,029,29,09,33,223,36,16,53,104,41*7C
$GPGSV,4,3,14,22,40,012,39,23,45,212,40,26,29,132,36,27,09,059,34*7E
$GPGSV,4,4,14,31,02,126,,50,47,313,37*7A
$GPGLL,2730.43328,S,15254.88636,E,072459.00,A,A*75
$GSENSOR,-32,1012,-40
$GPRMC,072500.00,A,2730.43308,S,15254.88907,E,7.336,87.28,220420,,,A*42
$GPVTG,87.28,T,,M,7.336,N,13.586,K,A*30
$GPGGA,072500.00,2730.43308,S,15254.88907,E,1,08,1.05,37.5,M,38.5,M,,*71
$GPGSA,A,3,03,04,16,22,09,26,07,27,,,,,2.17,1.05,1.90*05
$GPGSV,4,1,14,01,05,345,20,03,67,352,43,04,57,181,24,06,06,239,*7C
$GPGSV,4,2,14,07,24,284,29,08,05,029,,09,33,223,40,16,53,104,40*76
$GPGSV,4,3,14,22,40,012,36,23,45,212,44,26,29,132,37,27,09,059,21*70
$GPGSV,4,4,14,31,02,126,,50,47,313,37*7A
$GPGLL,2730.43308,S,15254.88907,E,072500.00,A,A*77
$GSENSOR,-102,1108,-86
$GPRMC,072501.00,A,2730.43293,S,15254.89050,E,3.454,85.74,220420,,,A*46
$GPVTG,85.74,T,,M,3.454,N,6.397,K,A*0E
$GPGGA,072501.00,2730.43293,S,15254.89050,E,1,09,1.05,37.7,M,38.5,M,,*7A
$GPGSA,A,3,03,04,16,22,09,26,07,27,08,,,,2.17,1.05,1.90*0D
$GPGSV,4,1,14,01,05,345,18,03,67,352,44,04,57,181,29,06,06,239,*7D
$GPGSV,4,2,14,07,24,284,28,08,05,029,33,09,33,223,37,16,53,104,41*76
$GPGSV,4,3,14,22,40,012,38,23,45,212,43,26,29,132,37,27,09,059,20*78
$GPGSV,4,4,14,31,02,126,,50,47,313,37*7A
$GPGLL,2730.43293,S,15254.89050,E,072501.00,A,A*7F
$GSENSOR,-86,978,140
$GPRMC,072502.00,A,2730.43290,S,15254.89107,E,1.362,85.50,220420,,,A*43
$GPVTG,85.50,T,,M,1.362,N,2.522,K,A*04
$GPGGA,072502.00,2730.43290,S,15254.89107,E,1,08,1.05,37.8,M,38.5,M,,*77
$GPGSA,A,3,03,04,16,22,09,26,07,27,,,,,2.17,1.05,1.90*05
$GPGSV,4,1,14,01,05,345,18,03,67,352,45,04,57,181,29,06,06,239,*7C
$GPGSV,4,2,14,07,24,284,32,08,05,029,,09,33,223,38,16,53,104,40*73
$GPGSV,4,3,14,22,40,012,40,23,45,212,43,26,29,132,37,27,09,059,22*75
$GPGSV,4,4,14,31,02,126,,50,47,313,34*79
$GPGLL,2730.43290,S,15254.89107,E,072502.00,A,A*7C
$GSENSOR,-76,1032,322
$GPRMC,072503.00,A,2730.43291,S,15254.89205,E,4.030,92.08,220420,,,A*48
$GPVTG,92.08,T,,M,4.030,N,7.464,K,A*08
$GPGGA,072503.00,2730.43291,S,15254.89205,E,1,09,1.05,37.9,M,38.5,M,,*76
$GPGSA,A,3,03,04,16,22,09,26,07,27,08,,,,2.17,1.05,1.90*0D
$GPGSV,4,1,14,01,05,345,18,03,67,352,44,04,57,181,30,06,06,239,*75
$GPGSV,4,2,14,07,24,284,31,08,05,029,31,09,33,223,38,16,53,104,40*72
$GPGSV,4,3,14,22,40,012,35,23,45,212,45,26,29,132,37,27,09,059,21*72
$GPGSV,4,4,14,31,02,126,,50,47,313,37*7A
$GPGLL,2730.43291,S,15254.89205,E,072503.00,A,A*7D
$GSENSOR,-212,980,356
$GPRMC,072504.00,A,2730.43347,S,15254.89400,E,7.764,107.04,220420,,,A*72
$GPVTG,107.04,T,,M,7.764,N,14.380,K,A*03
$GPGGA,072504.00,2730.43347,S,15254.89400,E,1,08,1.05,38.0,M,38.5,M,,*7F
$GPGSA,A,3,03,04,16,22,09,26,07,27,,,,,2.17,1.05,1.90*05
$GPGSV,4,1,14,01,05,345,21,03,67,352,41,04,57,181,34,06,06,239,*7E
$GPGSV,4,2,14,07,24,284,37,08,05,029,,09,33,223,34,16,53,104,39*74
$GPGSV,4,3,14,22,40,012,37,23,45,212,37,26,29,132,38,27,09,059,24*7F
$GPGSV,4,4,14,31,02,126,,50,47,313,37*7A
$GPGLL,2730.43347,S,15254.89400,E,072504.00,A,A*73
$GSENSOR,-240,932,208
$GPRMC,072505.00,A,2730.43512,S,15254.89633,E,10.495,128.57,220420,,,A*47
$GPVTG,128.57,T,,M,10.495,N,19.436,K,A*34
$GPGGA,072505.00,2730.43512,S,15254.89633,E,1,08,1.05,38.3,M,38.5,M,,*79
$GPGSA,A,3,03,04,16,22,09,26,07,27,,,,,2.17,1.05,1.90*05
$GPGSV,4,1,14,01,05,345,22,03,67,352,42,04,57,181,30,06,06,239,24*7C
$GPGSV,4,2,14,07,24,284,34,08,05,029,23,09,33,223,34,16,53,104,40*78
$GPGSV,4,3,14,22,40,012,41,23,45,212,44,26,29,132,37,27,09,059,31*71
$GPGSV,4,4,14,31,02,126,,50,47,313,37*7A
$GPGLL,2730.43512,S,15254.89633,E,072505.00,A,A*76
$GSENSOR,-316,1000,180
$GPRMC,072506.00,A,2730.43788,S,15254.89835,E,12.542,149.80,220420,,,A*49
$GPVTG,149.80,T,,M,12.542,N,23.228,K,A*30
$GPGGA,072506.00,2730.43788,S,15254.89835,E,1,08,1.05,38.6,M,38.5,M,,*76
$GPGSA,A,3,03,04,16,22,09,26,07,27,,,,,2.17,1.05,1.90*05
$GPGSV,4,1,14,01,05,345,30,03,67,352,33,04,57,181,37,06,06,239,23*79
$GPGSV,4,2,14,07,24,284,34,08,05,029,21,09,33,223,33,16,53,104,40*7D
$GPGSV,4,3,14,22,40,012,42,23,45,212,38,26,29,132,35,27,09,059,31*7B
$GPGSV,4,4,14,31,02,126,,50,47,313,28*74
$GPGLL,2730.43788,S,15254.89835,E,072506.00,A,A*7C
$GSENSOR,-110,702,8
$GPRMC,072507.00,A,2730.44167,S,15254.89983,E,14.833,161.91,220420,,,A*43
$GPVTG,161.91,T,,M,14.833,N,27.471,K,A*39
$GPGGA,072507.00,2730.44167,S,15254.89983,E,1,09,1.05,39.0,M,38.5,M,,*7D
$GPGSA,A,3,03,04,16,22,09,26,07,27,08,,,,2.17,1.05,1.90*0D
$GPGSV,4,1,14,01,05,345,33,03,67,352,32,04,57,181,39,06,06,239,21*77
$GPGSV,4,2,14,07,24,284,31,08,05,029,21,09,33,223,33,16,53,104,36*79
$GPGSV,4,3,14,22,40,012,43,23,45,212,38,26,29,132,40,27,09,059,23*7B
$GPGSV,4,4,14,31,02,126,,50,47,313,36*7B
$GPGLL,2730.44167,S,15254.89983,E,072507.00,A,A*71
$GSENSOR,42,902,250
$GPRMC,072508.00,A,2730.44617,S,15254.90119,E,17.143,165.51,220420,,,A*4A
$GPVTG,165.51,T,,M,17.143,N,31.749,K,A*33
$GPGGA,072508.00,2730.44617,S,15254.90119,E,1,08,1.05,39.5,M,38.5,M,,*75
$GPGSA,A,3,03,04,16,22,09,26,07,27,,,,,2.17,1.05,1.90*05
$GPGSV,4,1,14,01,05,345,31,03,67,352,33,04,57,181,38,06,06,239,21*75
$GPGSV,4,2,14,07,24,284,25,08,05,029,,09,33,223,38,16,53,104,37*75
$GPGSV,4,3,14,22,40,012,41,23,45,212,39,26,29,132,40,27,09,059,22*79
$GPGSV,4,4,14,31,02,126,,50,47,313,32*7F
$GPGLL,2730.44617,S,15254.90119,E,072508.00,A,A*7D
$GSENSOR,-30,958,208
$GPRMC,072509.00,A,2730.45138,S,15254.90251,E,19.475,167.01,220420,,,A*46
$GPVTG,167.01,T,,M,19.475,N,36.067,K,A*36
$GPGGA,072509.00,2730.45138,S,15254.90251,E,1,08,1.05,40.0,M,38.5,M,,*7B
$GPGSA,A,3,03,04,16,22,09,26,07,27,,,,,2.17,1.05,1.90*05
$GPGSV,4,1,14,01,05,345,32,03,67,352,34,04,57,181,36,06,06,239,22*7C
$GPGSV,4,2,14,07,24,284,35,08,05,029,18,09,33,223,36,16,53,104,37*73
$GPGSV,4,3,14,22,40,012,41,23,45,212,36,26,29,132,40,27,09,059,29*7D
$GPGSV,4,4,14,31,02,126,,50,47,313,31*7C
$GPGLL,2730.45138,S,15254.90251,E,072509.00,A,A*78
$GSENSOR,-10,1066,300
$GPRMC,072510.00,A,2730.45719,S,15254.90364,E,21.560,170.68,220420,,,A*4B
$GPVTG,170.68,T,,M,21.560,N,39.929,K,A*3D
$GPGGA,072510.00,2730.45719,S,15254.90364,E,1,08,1.05,40.6,M,38.4,M,,*76
$GPGSA,A,3,03,04,16,22,09,26,07,27,,,,,2.17,1.05,1.90*05
$GPGSV,4,1,14,01,05,345,32,03,67,352,36,04,57,181,35,06,06,239,22*7D
$GPGSV,4,2,14,07,24,284,34,08,05,029,18,09,33,223,35,16,53,104,38*7E
$GPGSV,4,3,14,22,40,012,40,23,45,212,32,26,29,132,33,27,09,059,27*72
$GPGSV,4,4,14,31,02,126,,50,47,313,29*75
$GPGLL,2730.45719,S,15254.90364,E,072510.00,A,A*72
$GSENSOR,-60,1000,272
$GPRMC,072511.00,A,2730.46353,S,15254.90451,E,23.428,174.00,220420,,,A*47
$GPVTG,174.00,T,,M,23.428,N,43.389,K,A*35
$GPGGA,072511.00,2730.46353,S,15254.90451,E,1,09,1.05,41.4,M,38.4,M,,*7D
$GPGSA,A,3,03,04,16,22,09,26,07,27,08,,,,2.17,1.05,1.90*0D
$GPGSV,4,1,14,01,05,345,31,03,67,352,37,04,57,181,35,06,06,239,21*7C
$GPGSV,4,2,14,07,24,284,36,08,05,029,21,09,33,223,37,16,53,104,40*7B
$GPGSV,4,3,14,22,40,012,39,23,45,212,34,26,29,132,33,27,09,059,26*7B
$GPGSV,4,4,14,31,02,126,17,50,47,313,28*72
$GPGLL,2730.46353,S,15254.90451,E,072511.00,A,A*7B
$GSENSOR,-30,1030,234
$GPRMC,072512.00,A,2730.47048,S,15254.90507,E,25.522,176.58,220420,,,A*4C
$GPVTG,176.58,T,,M,25.522,N,47.267,K,A*32
$GPGGA,072512.00,2730.47048,S,15254.90507,E,1,08,1.05,42.1,M,38.4,M,,*73
$GPGSA,A,3,03,04,16,22,09,26,07,27,,,,,2.17,1.05,1.90*05
$GPGSV,4,1,14,01,05,345,30,03,67,352,34,04,57,181,34,06,06,239,20*7E
$GPGSV,4,2,14,07,24,284,30,08,05,029,,09,33,223,38,16,53,104,38*7E
$GPGSV,4,3,14,22,40,012,41,23,45,212,37,26,29,132,31,27,09,059,32*70
$GPGSV,4,4,14,31,02,126,15,50,47,313,29*71
$GPGLL,2730.47048,S,15254.90507,E,072512.00,A,A*72
$GSENSOR,-12,1070,156
$GPRMC,072513.00,A,2730.47781,S,15254.90523,E,26.611,179.72,220420,,,A*4E
$GPVTG,179.72,T,,M,26.611,N,49.283,K,A*31
$GPGGA,072513.00,2730.47781,S,15254.90523,E,1,09,1.05,42.5,M,38.4,M,,*73
$GPGSA,A,3,03,04,16,22,09,26,07,27,08,,,,2.17,1.05,1.90*0D
$GPGSV,4,1,14,01,05,345,28,03,67,352,33,04,57,181,34,06,06,239,17*74
$GPGSV,4,2,14,07,24,284,34,08,05,029,32,09,33,223,28,16,53,104,36*74
$GPGSV,4,3,14,22,40,012,38,23,45,212,38,26,29,132,33,27,09,059,26*76
$GPGSV,4,4,14,31,02,126,13,50,47,313,31*7E
$GPGLL,2730.47781,S,15254.90523,E,072513.00,A,A*77
$GSENSOR,-78,858,214
$GPRMC,072514.00,A,2730.48539,S,15254.90490,E,27.531,183.48,220420,,,A*42
$GPVTG,183.48,T,,M,27.531,N,50.987,K,A*3A
$GPGGA,072514.00,2730.48539,S,15254.90490,E,1,08,1.05,43.0,M,38.4,M,,*76
$GPGSA,A,3,03,04,16,22,09,26,07,27,,,,,2.17,1.05,1.90*05
$GPGSV,4,1,14,01,05,345,18,03,67,352,33,04,57,181,37,06,06,239,13*70
$GPGSV,4,2,14,07,24,284,31,08,05,029,,09,33,223,35,16,53,104,37*7D
$GPGSV,4,3,14,22,40,012,36,23,45,212,41,26,29,132,33,27,09,059,25*75
$GPGSV,4,4,14,31,02,126,11,50,47,313,32*7F
$GPGLL,2730.48539,S,15254.90490,E,072514.00,A,A*77
$GSENSOR,82,784,68
$GPRMC,072515.00,A,2730.49311,S,15254.90415,E,28.038,185.86,220420,,,A*44
$GPVTG,185.86,T,,M,28.038,N,51.925,K,A*34
$GPGGA,072515.00,2730.49311,S,15254.90415,E,1,07,1.05,43.6,M,38.4,M,,*7E
$GPGSA,A,3,03,04,16,22,09,26,07,,,,,,2.17,1.05,1.90*00
$GPGSV,4,1,14,01,05,345,16,03,67,352,34,04,57,181,37,06,06,239,11*7B
$GPGSV,4,2,14,07,24,284,34,08,05,029,20,09,33,223,35,16,53,104,37*7A
$GPGSV,4,3,14,22,40,012,37,23,45,212,40,26,29,132,31,27,09,059,*70
$GPGSV,4,4,14,31,02,126,09,50,47,313,32*76
$GPGLL,2730.49311,S,15254.90415,E,072515.00,A,A*76
$GSENSOR,-66,1070,218
$GPRMC,072516.00,A,2730.50097,S,15254.90324,E,28.459,186.05,220420,,,A*4C
$GPVTG,186.05,T,,M,28.459,N,52.706,K,A*33
$GPGGA,072516.00,2730.50097,S,15254.90324,E,1,07,1.05,44.2,M,38.4,M,,*7E
$GPGSA,A,3,03,04,16,22,09,26,07,,,,,,2.17,1.05,1.90*00
$GPGSV,4,1,14,01,05,345,16,03,67,352,40,04,57,181,37,06,06,239,12*7B
$GPGSV,4,2,14,07,24,284,30,08,05,029,21,09,33,223,34,16,53,104,38*71
$GPGSV,4,3,14,22,40,012,38,23,45,212,39,26,29,132,34,27,09,059,*74
$GPGSV,4,4,14,31,02,126,09,50,47,313,33*77
$GPGLL,2730.50097,S,15254.90324,E,072516.00,A,A*75
$GSENSOR,40,992,250
$GPRMC,072517.00,A,2730.50885,S,15254.90233,E,28.597,186.19,220420,,,A*4F
$GPVTG,186.19,T,,M,28.597,N,52.962,K,A*31
$GPGGA,072517.00,2730.50885,S,15254.90233,E,1,07,1.05,45.1,M,38.4,M,,*71
$GPGSA,A,3,03,04,16,22,09,26,07,,,,,,2.17,1.05,1.90*00
$GPGSV,4,1,14,01,05,345,18,03,67,352,40,04,57,181,37,06,06,239,11*76
$GPGSV,4,2,14,07,24,284,25,08,05,029,20,09,33,223,37,16,53,104,39*76
$GPGSV,4,3,14,22,40,012,38,23,45,212,37,26,29,132,32,27,09,059,21*7F
$GPGSV,4,4,14,31,02,126,,50,47,313,32*7F
$GPGLL,2730.50885,S,15254.90233,E,072517.00,A,A*78
$GSENSOR,14,928,152
$GPRMC,072518.00,A,2730.51677,S,15254.90144,E,28.564,185.86,220420,,,A*48
$GPVTG,185.86,T,,M,28.564,N,52.900,K,A*3C
$GPGGA,072518.00,2730.51677,S,15254.90144,E,1,08,1.05,46.0,M,38.4,M,,*72
$GPGSA,A,3,03,04,16,22,09,26,07,08,,,,,2.17,1.05,1.90*08
$GPGSV,4,1,14,01,05,345,19,03,67,352,40,04,57,181,37,06,06,239,13*75
$GPGSV,4,2,14,07,24,284,27,08,05,029,20,09,33,223,35,16,53,104,39*76
$GPGSV,4,3,14,22,40,012,39,23,45,212,37,26,29,132,34,27,09,059,22*7B
$GPGSV,4,4,14,31,02,126,,50,47,313,29*75
$GPGLL,2730.51677,S,15254.90144,E,072518.00,A,A*76
$GSENSOR,-226,1132,18
$GPRMC,072519.00,A,2730.52469,S,15254.90066,E,28.556,185.14,220420,,,A*4C
$GPVTG,185.14,T,,M,28.556,N,52.886,K,A*39
$GPGGA,072519.00,2730.52469,S,15254.90066,E,1,08,1.05,46.8,M,38.4,M,,*74
$GPGSA,A,3,03,04,16,22,09,26,07,27,,,,,2.17,1.05,1.90*05
$GPGSV,4,1,14,01,05,346,19,03,67,352,40,04,57,181,37,06,06,239,13*76
$GPGSV,4,2,14,07,24,284,27,08,05,029,,09,33,223,32,16,53,104,39*73
$GPGSV,4,3,14,22,40,012,38,23,45,212,34,26,29,132,34,27,09,059,31*7B
$GPGSV,4,4,14,31,02,126,,50,47,313,27*7B
$GPGLL,2730.52469,S,15254.90066,E,072519.00,A,A*78
$GSENSOR,-88,1048,0
$GPRMC,072520.00,A,2730.53261,S,15254.90005,E,28.512,183.79,220420,,,A*41
$GPVTG,183.79,T,,M,28.512,N,52.805,K,A*3F
$GPGGA,072520.00,2730.53261,S,15254.90005,E,1,08,1.05,47.8,M,38.4,M,,*75
$GPGSA,A,3,03,04,16,22,09,26,07,27,,,,,2.17,1.05,1.90*05
$GPGSV,4,1,14,01,05,346,18,03,67,352,39,04,57,181,36,06,06,239,*7A
$GPGSV,4,2,14,07,24,284,25,08,05,029,19,09,33,223,31,16,53,104,39*7A
$GPGSV,4,3,14,22,40,012,38,23,45,212,36,26,29,132,34,27,09,059,31*79
$GPGSV,4,4,14,31,02,126,,50,47,313,36*7B
$GPGLL,2730.53261,S,15254.90005,E,072520.00,A,A*78
$GSENSOR,76,998,126
$GPRMC,072521.00,A,2730.54041,S,15254.89996,E,27.947,179.64,220420,,,A*46
$GPVTG,179.64,T,,M,27.947,N,51.758,K,A*31
$GPGGA,072521.00,2730.54041,S,15254.89996,E,1,09,1.05,48.6,M,38.4,M,,*78
$GPGSA,A,3,03,04,16,22,09,26,07,27,08,,,,2.17,1.05,1.90*0D
$GPGSV,4,1,14,01,05,346,15,03,66,352,34,04,57,181,36,06,06,239,*7B
$GPGSV,4,2,14,07,24,284,32,08,05,029,30,09,33,223,31,16,53,104,37*79
$GPGSV,4,3,14,22,40,012,39,23,45,212,37,26,29,132,34,27,09,059,32*7A
$GPGSV,4,4,14,31,02,126,,50,47,313,34*79
$GPGLL,2730.54041,S,15254.89996,E,072521.00,A,A*75
$GSENSOR,148,988,60
$GPRMC,072522.00,A,2730.54794,S,15254.90069,E,26.827,173.54,220420,,,A*44
$GPVTG,173.54,T,,M,26.827,N,49.683,K,A*30
$GPGGA,072522.00,2730.54794,S,15254.90069,E,1,08,1.05,49.2,M,38.4,M,,*71
$GPGSA,A,3,03,04,16,22,09,26,07,27,,,,,2.17,1.05,1.90*05
$GPGSV,4,1,14,01,05,346,15,03,66,352,33,04,57,181,33,06,06,239,*79
$GPGSV,4,2,14,07,24,284,28,08,05,029,,09,33,223,34,16,53,104,39*7A
$GPGSV,4,3,14,22,40,012,42,23,45,212,34,26,29,132,28,27,09,059,32*78
$GPGSV,4,4,14,31,02,126,14,50,47,313,30*78
$GPGLL,2730.54794,S,15254.90069,E,072522.00,A,A*78
$GSENSOR,202,976,244
$GPRMC,072523.00,A,2730.55525,S,15254.90241,E,26.688,166.09,220420,,,A*43
$GPVTG,166.09,T,,M,26.688,N,49.426,K,A*3A
$GPGGA,072523.00,2730.55525,S,15254.90241,E,1,08,1.05,49.6,M,38.4,M,,*75
$GPGSA,A,3,03,04,16,22,09,26,07,27,,,,,2.17,1.05,1.90*05
$GPGSV,4,1,14,01,05,346,14,03,66,352,33,04,57,181,34,06,06,239,*7F
$GPGSV,4,2,14,07,24,284,27,08,05,029,23,09,33,223,31,16,53,104,38*70
$GPGSV,4,3,14,22,40,012,42,23,45,212,34,26,29,132,38,27,09,059,27*7D
$GPGSV,4,4,14,31,02,126,14,50,47,313,36*7E
$GPGLL,2730.55525,S,15254.90241,E,072523.00,A,A*78
$GSENSOR,116,968,144
$GPRMC,072524.00,A,2730.56241,S,15254.90526,E,27.210,158.31,220420,,,A*46
$GPVTG,158.31,T,,M,27.210,N,50.392,K,A*38
$GPGGA,072524.00,2730.56241,S,15254.90526,E,1,09,1.05,49.9,M,38.4,M,,*7C
$GPGSA,A,3,03,04,16,22,09,26,07,27,08,,,,2.17,1.05,1.90*0D
$GPGSV,4,1,14,01,05,346,12,03,66,352,36,04,57,181,31,06,06,239,*79
$GPGSV,4,2,14,07,24,284,27,08,05,029,25,09,33,223,25,16,53,104,34*7F
$GPGSV,4,3,14,22,40,012,44,23,45,212,30,26,29,132,39,27,09,059,26*7F
$GPGSV,4,4,14,31,02,126,12,50,47,313,30*7E
$GPGLL,2730.56241,S,15254.90526,E,072524.00,A,A*7F
$GSENSOR,174,982,-34
$GPRMC,072525.00,A,2730.56917,S,15254.90908,E,27.420,150.81,220420,,,A*49
$GPVTG,150.81,T,,M,27.420,N,50.781,K,A*38
$GPGGA,072525.00,2730.56917,S,15254.90908,E,1,08,1.05,50.3,M,38.4,M,,*76
$GPGSA,A,3,03,04,16,22,09,26,07,27,,,,,2.17,1.05,1.90*05
$GPGSV,4,1,14,01,05,346,16,03,66,352,41,04,57,181,38,06,06,239,*74
$GPGSV,4,2,14,07,24,284,27,08,05,029,,09,33,223,26,16,53,104,41*79
$GPGSV,4,3,14,22,40,012,37,23,45,212,38,26,29,132,38,27,09,059,25*71
$GPGSV,4,4,14,31,02,126,11,50,47,313,35*78
$GPGLL,2730.56917,S,15254.90908,E,072525.00,A,A*76
$GSENSOR,252,990,110
$GPRMC,072526.00,A,2730.57551,S,15254.91398,E,27.746,142.71,220420,,,A*48
$GPVTG,142.71,T,,M,27.746,N,51.385,K,A*36
$GPGGA,072526.00,2730.57551,S,15254.91398,E,1,08,1.05,50.6,M,38.4,M,,*7D
$GPGSA,A,3,03,04,16,22,09,26,07,27,,,,,2.17,1.05,1.90*05
$GPGSV,4,1,14,01,05,346,18,03,66,352,44,04,57,181,38,06,06,239,*7F
$GPGSV,4,2,14,07,24,284,27,08,06,029,,09,33,223,38,16,53,104,41*75
$GPGSV,4,3,14,22,40,012,35,23,45,212,38,26,29,132,37,27,09,059,23*7A
$GPGSV,4,4,14,31,02,126,11,50,47,313,34*79
$GPGLL,2730.57551,S,15254.91398,E,072526.00,A,A*78
$GSENSOR,240,856,86
$GPRMC,072527.00,A,2730.58119,S,15254.92008,E,27.974,135.02,220420,,,A*4C
$GPVTG,135.02,T,,M,27.974,N,51.808,K,A*33
$GPGGA,072527.00,2730.58119,S,15254.92008,E,1,08,1.05,51.1,M,38.4,M,,*74
$GPGSA,A,3,03,04,16,22,09,26,07,27,,,,,2.17,1.05,1.90*05
$GPGSV,4,1,14,01,05,346,16,03,66,352,44,04,57,181,36,06,06,239,*7F
$GPGSV,4,2,14,07,24,284,35,08,06,029,18,09,34,222,38,16,53,104,40*78
$GPGSV,4,3,14,22,40,012,41,23,45,212,41,26,29,132,40,27,09,059,22*76
$GPGSV,4,4,14,31,02,126,09,50,47,313,35*71
$GPGLL,2730.58119,S,15254.92008,E,072527.00,A,A*77
$GSENSOR,204,974,194
$GPRMC,072528.00,A,2730.58614,S,15254.92690,E,28.271,127.53,220420,,,A*48
$GPVTG,127.53,T,,M,28.271,N,52.358,K,A*38
$GPGGA,072528.00,2730.58614,S,15254.92690,E,1,08,1.05,51.8,M,38.4,M,,*7F
$GPGSA,A,3,03,04,16,22,09,26,07,27,,,,,2.17,1.05,1.90*05
$GPGSV,4,1,14,01,05,346,,03,66,352,43,04,57,181,35,06,06,239,*7C
$GPGSV,4,2,14,07,24,284,37,08,06,029,18,09,34,222,36,16,53,104,42*76
$GPGSV,4,3,14,22,40,012,38,23,45,212,42,26,29,132,39,27,09,059,22*75
$GPGSV,4,4,14,31,02,126,08,50,47,313,35*70
$GPGLL,2730.58614,S,15254.92690,E,072528.00,A,A*75
$GSENSOR,220,922,102
$GPRMC,072529.00,A,2730.59032,S,15254.93437,E,28.623,119.75,220420,,,A*4E
$GPVTG,119.75,T,,M,28.623,N,53.010,K,A*3C
$GPGGA,072529.00,2730.59032,S,15254.93437,E,1,08,1.05,52.0,M,38.4,M,,*78
$GPGSA,A,3,03,04,16,22,09,26,07,27,,,,,2.17,1.05,1.90*05
$GPGSV,4,1,14,01,05,346,,03,66,352,43,04,57,181,26,06,06,239,*7E
$GPGSV,4,2,14,07,24,284,34,08,06,029,20,09,34,222,37,16,53,104,42*7F
$GPGSV,4,3,14,22,40,012,36,23,45,212,38,26,29,132,37,27,09,059,22*78
$GPGSV,4,4,14,31,02,126,,50,47,313,34*79
$GPGLL,2730.59032,S,15254.93437,E,072529.00,A,A*79
$GSENSOR,140,1012,150
$GPRMC,072530.00,A,2730.59351,S,15254.94263,E,29.057,111.73,220420,,,A*4A
$GPVTG,111.73,T,,M,29.057,N,53.813,K,A*3D
$GPGGA,072530.00,2730.59351,S,15254.94263,E,1,09,1.05,52.3,M,38.4,M,,*74
$GPGSA,A,3,03,04,16,22,09,26,07,27,08,,,,2.17,1.05,1.90*0D
$GPGSV,4,1,14,01,05,346,,03,66,352,41,04,57,181,30,06,06,239,*7B
$GPGSV,4,2,14,07,24,284,33,08,06,029,19,09,34,222,37,16,53,104,36*71
$GPGSV,4,3,14,22,40,012,33,23,45,212,34,26,29,132,33,27,09,059,22*75
$GPGSV,4,4,14,31,02,126,,50,47,313,39*74
$GPGLL,2730.59351,S,15254.94263,E,072530.00,A,A*77
$GSENSOR,152,1072,160
$GPRMC,072531.00,A,2730.59571,S,15254.95124,E,28.738,104.24,220420,,,A*47
$GPVTG,104.24,T,,M,28.738,N,53.222,K,A*3C
$GPGGA,072531.00,2730.59571,S,15254.95124,E,1,09,1.05,52.2,M,38.4,M,,*71
$GPGSA,A,3,03,04,16,22,09,26,07,27,08,,,,2.17,1.05,1.90*0D
$GPGSV,4,1,14,01,05,346,,03,66,352,42,04,57,181,30,06,06,239,*78
$GPGSV,4,2,14,07,24,284,19,08,06,029,18,09,34,222,31,16,53,104,37*7F
$GPGSV,4,3,14,22,40,012,36,23,45,212,30,26,29,132,35,27,09,059,22*72
$GPGSV,4,4,14,31,02,126,,50,47,313,37*7A
$GPGLL,2730.59571,S,15254.95124,E,072531.00,A,A*73
$GSENSOR,64,930,-126
$GPRMC,072532.00,A,2730.59699,S,15254.96013,E,28.793,98.25,220420,,,A*73
$GPVTG,98.25,T,,M,28.793,N,53.325,K,A*0E
$GPGGA,072532.00,2730.59699,S,15254.96013,E,1,09,1.05,52.1,M,38.4,M,,*72
$GPGSA,A,3,03,04,16,22,09,26,07,27,08,,,,2.17,1.05,1.90*0D
$GPGSV,4,1,14,01,05,346,,03,66,352,39,04,57,181,34,06,06,239,19*78
$GPGSV,4,2,14,07,24,284,28,08,06,029,16,09,34,222,34,16,53,104,35*74
$GPGSV,4,3,14,22,40,012,29,23,45,212,39,26,29,132,35,27,09,059,21*76
$GPGSV,4,4,14,31,02,126,,50,47,313,38*75
$GPGLL,2730.59699,S,15254.96013,E,072532.00,A,A*73
$GSENSOR,40,1014,178
$GPRMC,072533.00,A,2730.59774,S,15254.96904,E,28.545,94.96,220420,,,A*72
$GPVTG,94.96,T,,M,28.545,N,52.865,K,A*0D
$GPGGA,072533.00,2730.59774,S,15254.96904,E,1,09,1.05,51.7,M,38.4,M,,*7B
$GPGSA,A,3,03,04,16,22,09,26,07,27,08,,,,2.17,1.05,1.90*0D
$GPGSV,4,1,14,01,05,346,,03,66,352,39,04,57,181,34,06,06,239,17*76
$GPGSV,4,2,14,07,24,284,29,08,06,029,14,09,34,222,36,16,53,104,36*76
$GPGSV,4,3,14,22,40,012,42,23,45,212,43,26,29,132,28,27,09,059,21*7A
$GPGSV,4,4,14,31,02,126,,50,47,313,39*74
$GPGLL,2730.59774,S,15254.96904,E,072533.00,A,A*7F
$GSENSOR,-36,948,74
$GPRMC,072534.00,A,2730.59848,S,15254.97777,E,27.855,96.72,220420,,,A*75
$GPVTG,96.72,T,,M,27.855,N,51.587,K,A*04
$GPGGA,072534.00,2730.59848,S,15254.97777,E,1,09,1.05,50.9,M,38.4,M,,*78
$GPGSA,A,3,03,04,16,22,09,26,07,27,08,,,,2.17,1.05,1.90*0D
$GPGSV,4,1,14,01,05,346,,03,66,352,41,04,57,181,30,06,06,239,*7B
$GPGSV,4,2,14,07,24,284,32,08,06,029,15,09,34,222,31,16,53,104,35*79
$GPGSV,4,3,14,22,40,012,36,23,45,212,40,26,29,132,33,27,09,059,21*70
$GPGSV,4,4,14,31,02,126,,50,47,313,39*74
$GPGLL,2730.59848,S,15254.97777,E,072534.00,A,A*73
$GSENSOR,-102,1048,64
$GPRMC,072535.00,A,2730.59978,S,15254.98631,E,27.705,101.54,220420,,,A*4B
$GPVTG,101.54,T,,M,27.705,N,51.309,K,A*35
$GPGGA,072535.00,2730.59978,S,15254.98631,E,1,09,1.05,49.9,M,38.4,M,,*7F
$GPGSA,A,3,03,04,16,22,09,26,07,27,08,,,,2.17,1.05,1.90*0D
$GPGSV,4,1,14,01,05,346,,03,66,352,39,04,57,181,33,06,06,239,*77
$GPGSV,4,2,14,07,24,284,31,08,06,029,14,09,34,222,31,16,53,104,33*7D
$GPGSV,4,3,14,22,40,012,36,23,45,212,36,26,29,132,36,27,09,059,22*77
$GPGSV,4,4,14,31,02,126,,50,47,313,39*74
$GPGLL,2730.59978,S,15254.98631,E,072535.00,A,A*7C
$GSENSOR,-206,1014,4
$GPRMC,072536.00,A,2730.60191,S,15254.99464,E,27.840,108.51,220420,,,A*4C
$GPVTG,108.51,T,,M,27.840,N,51.560,K,A*3E
$GPGGA,072536.00,2730.60191,S,15254.99464,E,1,09,1.05,48.8,M,38.4,M,,*7A
$GPGSA,A,3,03,04,16,22,09,26,07,27,08,,,,2.17,1.05,1.90*0D
$GPGSV,4,1,14,01,05,346,,03,66,352,43,04,57,181,33,06,06,239,*7A
$GPGSV,4,2,14,07,24,284,37,08,06,029,14,09,34,222,35,16,53,104,34*78
$GPGSV,4,3,14,22,40,012,35,23,45,212,36,26,29,132,31,27,09,059,22*73
$GPGSV,4,4,14,31,02,126,,50,47,313,37*7A
$GPGLL,2730.60191,S,15254.99464,E,072536.00,A,A*79
$GSENSOR,-204,1016,28
$GPRMC,072537.00,A,2730.60489,S,15255.00273,E,28.102,115.39,220420,,,A*42
$GPVTG,115.39,T,,M,28.102,N,52.045,K,A*3D
$GPGGA,072537.00,2730.60489,S,15255.00273,E,1,08,1.05,47.6,M,38.4,M,,*76
$GPGSA,A,3,03,04,16,22,09,26,07,27,,,,,2.17,1.05,1.90*05
$GPGSV,4,1,14,01,05,346,,03,66,352,41,04,57,181,31,06,06,239,*7A
$GPGSV,4,2,14,07,24,284,34,08,06,029,,09,34,222,39,16,53,104,37*71
$GPGSV,4,3,14,22,40,012,34,23,45,212,39,26,29,132,31,27,09,059,21*7E
$GPGSV,4,4,14,31,02,126,,50,47,313,37*7A
$GPGLL,2730.60489,S,15255.00273,E,072537.00,A,A*75
$GSENSOR,-164,1002,110
$GPRMC,072538.00,A,2730.60879,S,15255.01035,E,28.464,121.06,220420,,,A*41
$GPVTG,121.06,T,,M,28.464,N,52.715,K,A*31
$GPGGA,072538.00,2730.60879,S,15255.01035,E,1,08,1.32,46.1,M,38.4,M,,*79
$GPGSA,A,3,03,04,16,22,09,26,07,27,,,,,2.48,1.32,2.11*01
$GPGSV,4,1,14,01,05,346,,03,66,352,40,04,57,181,32,06,06,239,*78
$GPGSV,4,2,14,07,24,284,31,08,06,029,,09,34,222,38,16,53,104,40*75
$GPGSV,4,3,14,22,40,012,37,23,45,212,39,26,29,132,31,27,09,059,20*7C
$GPGSV,4,4,14,31,02,126,,50,47,313,33*7E
$GPGLL,2730.60879,S,15255.01035,E,072538.00,A,A*78
$GSENSOR,16,898,-34
$GPRMC,072539.00,A,2730.61298,S,15255.01796,E,28.615,122.25,220420,,,A*4C
$GPVTG,122.25,T,,M,28.615,N,52.996,K,A*32
$GPGGA,072539.00,2730.61298,S,15255.01796,E,1,08,1.05,44.6,M,38.4,M,,*73
$GPGSA,A,3,03,04,16,22,09,26,07,27,,,,,2.17,1.05,1.90*05
$GPGSV,4,1,14,01,05,346,,03,66,352,41,04,57,181,25,06,06,239,*7F
$GPGSV,4,2,14,07,24,284,30,08,06,029,14,09,34,222,36,16,53,104,42*7D
$GPGSV,4,3,14,22,40,012,34,23,45,212,30,26,29,132,33,27,09,059,20*74
$GPGSV,4,4,14,31,02,126,,50,47,313,*7E
$GPGLL,2730.61298,S,15255.01796,E,072539.00,A,A*73
$GSENSOR,16,984,-116
$GPRMC,072540.00,A,2730.61720,S,15255.02546,E,28.312,122.44,220420,,,A*4D
$GPVTG,122.44,T,,M,28.312,N,52.433,K,A*35
$GPGGA,072540.00,2730.61720,S,15255.02546,E,1,08,1.05,43.4,M,38.4,M,,*72
$GPGSA,A,3,03,04,16,22,09,26,07,27,,,,,2.17,1.05,1.89*0D
$GPGSV,4,1,14,01,05,346,,03,66,352,43,04,57,181,26,06,06,239,*7E
$GPGSV,4,2,14,07,24,284,30,08,06,029,12,09,34,222,28,16,53,104,42*74
$GPGSV,4,3,14,22,40,012,36,23,45,212,37,26,29,132,35,27,09,059,19*7D
$GPGSV,4,4,14,31,02,126,,50,47,313,*7E
$GPGLL,2730.61720,S,15255.02546,E,072540.00,A,A*77
$GSENSOR,-160,864,152
$GPRMC,072541.00,A,2730.62140,S,15255.03289,E,28.035,122.49,220420,,,A*41
$GPVTG,122.49,T,,M,28.035,N,51.920,K,A*32
$GPGGA,072541.00,2730.62140,S,15255.03289,E,1,08,1.05,42.1,M,38.4,M,,*71
$GPGSA,A,3,03,04,16,22,09,26,07,27,,,,,2.17,1.05,1.89*0D
$GPGSV,4,1,14,01,05,346,,03,66,352,43,04,57,181,30,06,06,239,*79
$GPGSV,4,2,14,07,24,284,30,08,06,029,,09,34,222,36,16,53,104,42*78
$GPGSV,4,3,14,22,40,012,34,23,45,212,35,26,29,132,35,27,09,059,18*7C
$GPGSV,4,4,14,31,02,126,,50,47,313,*7E
$GPGLL,2730.62140,S,15255.03289,E,072541.00,A,A*70
$GSENSOR,14,1076,4
$GPRMC,072542.00,A,2730.62555,S,15255.04017,E,27.458,122.14,220420,,,A*48
$GPVTG,122.14,T,,M,27.458,N,50.851,K,A*3C
$GPGGA,072542.00,2730.62555,S,15255.04017,E,1,08,1.05,40.9,M,38.4,M,,*7A
$GPGSA,A,3,03,04,16,22,09,26,07,27,,,,,2.17,1.05,1.89*0D
$GPGSV,4,1,14,01,05,346,,03,66,352,44,04,57,181,30,06,06,239,*7E
$GPGSV,4,2,14,07,24,284,23,08,06,029,,09,34,222,29,16,53,104,42*74
$GPGSV,4,3,14,22,40,012,41,23,45,212,35,26,29,132,32,27,09,059,17*76
$GPGSV,4,4,14,31,02,126,,50,47,313,*7E
$GPGLL,2730.62555,S,15255.04017,E,072542.00,A,A*71
$GSENSOR,116,910,-128
$GPRMC,072543.00,A,2730.62921,S,15255.04725,E,25.815,119.57,220420,,,A*48
$GPVTG,119.57,T,,M,25.815,N,47.809,K,A*3F
$GPGGA,072543.00,2730.62921,S,15255.04725,E,1,08,1.05,40.0,M,38.4,M,,*7B
$GPGSA,A,3,03,04,16,22,09,26,07,27,,,,,2.17,1.05,1.89*0D
$GPGSV,4,1,14,01,05,346,,03,66,352,42,04,57,181,25,06,06,239,*7C
$GPGSV,4,2,14,07,25,284,24,08,06,029,,09,34,222,33,16,53,104,42*79
$GPGSV,4,3,14,22,40,012,34,23,45,212,34,26,29,132,35,27,09,059,18*7D
$GPGSV,4,4,14,31,02,126,,50,47,313,*7E
$GPGLL,2730.62921,S,15255.04725,E,072543.00,A,A*79
$GSENSOR,100,904,56
$GPRMC,072544.00,A,2730.63204,S,15255.05405,E,23.485,112.74,220420,,,A*4B
$GPVTG,112.74,T,,M,23.485,N,43.494,K,A*3A
$GPGGA,072544.00,2730.63204,S,15255.05405,E,1,07,1.05,39.1,M,38.4,M,,*71
$GPGSA,A,3,03,04,16,22,09,26,07,,,,,,2.17,1.05,1.89*08
$GPGSV,4,1,14,01,05,346,,03,66,352,42,04,57,181,31,06,06,239,*79
$GPGSV,4,2,14,07,25,284,25,08,06,029,,09,34,222,36,16,53,104,39*71
$GPGSV,4,3,14,22,40,012,34,23,45,212,31,26,29,133,28,27,09,059,*7C
$GPGSV,4,4,14,31,02,126,,50,47,313,*7E
$GPGLL,2730.63204,S,15255.05405,E,072544.00,A,A*73
$GSENSOR,222,1050,-252
$GPRMC,072545.00,A,2730.63369,S,15255.06051,E,20.927,103.40,220420,,,A*47
$GPVTG,103.40,T,,M,20.927,N,38.757,K,A*3B
$GPGGA,072545.00,2730.63369,S,15255.06051,E,1,07,1.05,38.4,M,38.4,M,,*78
$GPGSA,A,3,03,04,16,22,09,26,07,,,,,,2.17,1.05,1.89*08
$GPGSV,4,1,14,01,05,346,,03,66,352,39,04,57,181,32,06,06,239,*76
$GPGSV,4,2,14,07,25,284,26,08,06,029,,09,34,222,29,16,53,104,38*7D
$GPGSV,4,3,14,22,40,012,30,23,45,212,30,26,29,133,32,27,09,059,22*72
$GPGSV,4,4,14,31,02,126,,50,47,313,*7E
$GPGLL,2730.63369,S,15255.06051,E,072545.00,A,A*7E
$GSENSOR,148,1054,-112
$GPRMC,072546.00,A,2730.63425,S,15255.06650,E,18.502,93.30,220420,,,A*73
$GPVTG,93.30,T,,M,18.502,N,34.265,K,A*0C
$GPGGA,072546.00,2730.63425,S,15255.06650,E,1,07,1.07,38.0,M,38.4,M,,*75
$GPGSA,A,3,03,04,16,22,09,26,07,,,,,,2.28,1.07,2.02*06
$GPGSV,4,1,14,01,05,346,,03,66,352,40,04,57,181,36,06,06,239,20*7E
$GPGSV,4,2,14,07,25,284,33,08,06,029,13,09,34,222,37,16,53,104,35*79
$GPGSV,4,3,14,22,40,012,36,23,45,212,45,26,29,133,36,27,09,059,21*71
$GPGSV,4,4,14,31,02,126,,50,47,313,38*75
$GPGLL,2730.63425,S,15255.06650,E,072546.00,A,A*75
$GSENSOR,40,1094,-38
$GPRMC,072547.00,A,2730.63384,S,15255.07215,E,17.845,82.02,220420,,,A*7A
$GPVTG,82.02,T,,M,17.845,N,33.050,K,A*0F
$GPGGA,072547.00,2730.63384,S,15255.07215,E,1,08,1.05,38.1,M,38.4,M,,*70
$GPGSA,A,3,03,04,16,22,09,26,07,27,,,,,2.17,1.05,1.89*0D
$GPGSV,4,1,14,01,05,346,,03,66,352,40,04,57,181,33,06,06,239,*79
$GPGSV,4,2,14,07,25,284,34,08,06,029,,09,34,222,33,16,53,104,40*7A
$GPGSV,4,3,14,22,40,012,36,23,45,212,43,26,29,133,35,27,09,059,29*7C
$GPGSV,4,4,14,31,02,126,,50,47,313,32*7F
$GPGLL,2730.63384,S,15255.07215,E,072547.00,A,A*7C
$GSENSOR,-90,968,-44
$GPRMC,072548.00,A,2730.63349,S,15255.07728,E,15.962,87.20,220420,,,A*7C
$GPVTG,87.20,T,,M,15.962,N,29.562,K,A*03
$GPGGA,072548.00,2730.63349,S,15255.07728,E,1,08,1.05,37.9,M,38.4,M,,*72
$GPGSA,A,3,03,04,16,22,09,26,07,27,,,,,2.17,1.05,1.89*0D
$GPGSV,4,1,14,01,05,346,,03,66,352,41,04,57,181,33,06,06,239,*78
$GPGSV,4,2,14,07,25,284,28,08,06,029,,09,34,222,33,16,53,104,38*78
$GPGSV,4,3,14,22,40,012,27,23,45,212,44,26,29,133,37,27,09,059,20*70
$GPGSV,4,4,14,31,02,126,,50,47,313,*7E
$GPGLL,2730.63349,S,15255.07728,E,072548.00,A,A*79
$GSENSOR,-306,1028,-24
$GPRMC,072549.00,A,2730.63409,S,15255.08185,E,14.427,102.36,220420,,,A*46
$GPVTG,102.36,T,,M,14.427,N,26.719,K,A*34
$GPGGA,072549.00,2730.63409,S,15255.08185,E,1,08,1.05,37.8,M,38.4,M,,*7F
$GPGSA,A,3,03,04,16,22,09,26,07,27,,,,,2.17,1.05,1.89*0D
$GPGSV,4,1,14,01,05,346,,03,66,352,41,04,57,181,30,06,06,239,*7B
$GPGSV,4,2,14,07,25,284,28,08,06,029,06,09,34,222,33,16,53,104,36*70
$GPGSV,4,3,14,22,40,012,39,23,45,212,35,26,29,133,34,27,09,059,28*72
$GPGSV,4,4,14,31,02,126,,50,47,313,*7E
$GPGLL,2730.63409,S,15255.08185,E,072549.00,A,A*75
$GSENSOR,-288,1040,68
$GPRMC,072550.00,A,2730.63594,S,15255.08577,E,14.219,123.78,220420,,,A*40
$GPVTG,123.78,T,,M,14.219,N,26.333,K,A*3A
$GPGGA,072550.00,2730.63594,S,15255.08577,E,1,08,1.05,37.4,M,38.4,M,,*77
$GPGSA,A,3,03,04,16,22,09,26,07,27,,,,,2.17,1.05,1.89*0D
$GPGSV,4,1,14,01,05,346,,03,66,352,43,04,57,181,30,06,06,239,*79
$GPGSV,4,2,14,07,25,284,27,08,06,029,,09,34,222,37,16,53,104,41*7D
$GPGSV,4,3,14,22,40,012,31,23,45,212,39,26,29,133,34,27,09,059,26*78
$GPGSV,4,4,14,31,02,126,,50,47,313,*7E
$GPGLL,2730.63594,S,15255.08577,E,072550.00,A,A*71
$GSENSOR,-384,960,46
$GPRMC,072551.00,A,2730.63925,S,15255.08846,E,14.789,148.35,220420,,,A*40
$GPVTG,148.35,T,,M,14.789,N,27.389,K,A*32
$GPGGA,072551.00,2730.63925,S,15255.08846,E,1,08,1.05,37.4,M,38.4,M,,*7F
$GPGSA,A,3,03,04,16,22,09,26,07,27,,,,,2.17,1.05,1.89*0D
$GPGSV,4,1,14,01,05,346,,03,66,352,41,04,57,181,37,06,06,239,*7C
$GPGSV,4,2,14,07,25,284,32,08,06,029,17,09,34,222,34,16,53,104,39*73
$GPGSV,4,3,14,22,40,012,44,23,45,212,39,26,29,133,39,27,09,059,25*74
$GPGSV,4,4,14,31,02,126,,50,47,313,*7E
$GPGLL,2730.63925,S,15255.08846,E,072551.00,A,A*79
$GSENSOR,-446,978,36
$GPRMC,072552.00,A,2730.64350,S,15255.08944,E,15.512,172.21,220420,,,A*42
$GPVTG,172.21,T,,M,15.512,N,28.729,K,A*3E
$GPGGA,072552.00,2730.64350,S,15255.08944,E,1,08,1.05,37.2,M,38.4,M,,*76
$GPGSA,A,3,03,04,16,22,09,26,07,27,,,,,2.17,1.05,1.89*0D
$GPGSV,4,1,14,01,05,346,,03,66,352,37,04,57,181,35,06,06,239,*7F
$GPGSV,4,2,14,07,25,284,32,08,06,029,14,09,34,222,37,16,53,104,38*72
$GPGSV,4,3,14,22,40,012,41,23,45,212,38,26,29,133,34,27,09,059,24*7C
$GPGSV,4,4,14,31,02,126,,50,47,313,*7E
$GPGLL,2730.64350,S,15255.08944,E,072552.00,A,A*76
$GSENSOR,-360,1034,106
$GPRMC,072553.00,A,2730.64799,S,15255.08843,E,16.747,197.24,220420,,,A*4B
$GPVTG,197.24,T,,M,16.747,N,31.015,K,A*31
$GPGGA,072553.00,2730.64799,S,15255.08843,E,1,08,1.05,36.9,M,38.4,M,,*7A
$GPGSA,A,3,03,04,16,22,09,26,07,27,,,,,2.17,1.05,1.89*0D
$GPGSV,4,1,14,01,05,346,,03,66,352,41,04,57,181,37,06,06,239,*7C
$GPGSV,4,2,14,07,25,284,33,08,06,029,13,09,34,222,33,16,53,104,42*7D
$GPGSV,4,3,14,22,40,012,30,23,45,212,43,26,29,133,36,27,09,059,22*72
$GPGSV,4,4,14,31,02,126,,50,47,313,*7E
$GPGLL,2730.64799,S,15255.08843,E,072553.00,A,A*70
$GSENSOR,-378,1114,262
$GPRMC,072554.00,A,2730.65235,S,15255.08556,E,18.806,215.74,220420,,,A*4F
$GPVTG,215.74,T,,M,18.806,N,34.830,K,A*33
$GPGGA,072554.00,2730.65235,S,15255.08556,E,1,08,1.05,36.7,M,38.4,M,,*78
$GPGSA,A,3,03,04,16,22,09,26,07,27,,,,,2.17,1.05,1.89*0D
$GPGSV,4,1,14,01,05,346,,03,66,352,39,04,57,181,37,06,06,239,*73
$GPGSV,4,2,14,07,25,284,29,08,06,029,13,09,34,222,35,16,53,104,42*70
$GPGSV,4,3,14,22,40,012,34,23,45,212,44,26,29,133,38,27,09,059,22*7F
$GPGSV,4,4,14,31,02,126,,50,47,313,31*7C
$GPGLL,2730.65235,S,15255.08556,E,072554.00,A,A*7C
$GSENSOR,-2,952,234
$GPRMC,072555.00,A,2730.65687,S,15255.08190,E,20.388,216.24,220420,,,A*4D
$GPVTG,216.24,T,,M,20.388,N,37.759,K,A*30
$GPGGA,072555.00,2730.65687,S,15255.08190,E,1,09,1.05,36.7,M,38.4,M,,*7B
$GPGSA,A,3,03,04,16,22,09,26,07,27,08,,,,2.17,1.05,1.89*05
$GPGSV,4,1,14,01,05,346,,03,66,352,40,04,57,181,39,06,06,239,*73
$GPGSV,4,2,14,07,25,284,20,08,06,029,12,09,34,222,37,16,53,104,41*79
$GPGSV,4,3,14,22,40,012,37,23,45,212,44,26,29,133,36,27,09,059,25*75
$GPGSV,4,4,14,31,02,126,,50,47,313,30*7D
$GPGLL,2730.65687,S,15255.08190,E,072555.00,A,A*7E
$GSENSOR,210,926,-22
$GPRMC,072556.00,A,2730.66221,S,15255.07859,E,21.910,206.45,220420,,,A*4A
$GPVTG,206.45,T,,M,21.910,N,40.577,K,A*32
$GPGGA,072556.00,2730.66221,S,15255.07859,E,1,09,1.05,36.8,M,38.4,M,,*7F
$GPGSA,A,3,03,04,16,22,09,26,07,27,08,,,,2.17,1.05,1.89*05
$GPGSV,4,1,14,01,05,346,,03,66,352,40,04,57,181,40,06,06,239,*7D
$GPGSV,4,2,14,07,25,284,28,08,06,029,08,09,34,222,31,16,53,104,42*7F
$GPGSV,4,3,14,22,40,012,34,23,45,212,42,26,29,133,33,27,09,059,24*74
$GPGSV,4,4,14,31,02,126,,50,47,313,28*74
$GPGLL,2730.66221,S,15255.07859,E,072556.00,A,A*75
$GSENSOR,320,990,218
$GPRMC,072557.00,A,2730.66838,S,15255.07644,E,23.341,194.47,220420,,,A*4D
$GPVTG,194.47,T,,M,23.341,N,43.228,K,A*3A
$GPGGA,072557.00,2730.66838,S,15255.07644,E,1,09,1.05,37.2,M,38.4,M,,*75
$GPGSA,A,3,03,04,16,22,09,26,07,27,08,,,,2.17,1.05,1.89*05
$GPGSV,4,1,14,01,05,346,,03,66,352,40,04,57,181,41,06,06,239,*7C
$GPGSV,4,2,14,07,25,284,27,08,06,029,08,09,34,222,32,16,53,104,34*72
$GPGSV,4,3,14,22,40,012,38,23,45,212,38,26,29,133,33,27,09,059,30*70
$GPGSV,4,4,14,31,02,126,,50,47,313,34*79
$GPGLL,2730.66838,S,15255.07644,E,072557.00,A,A*74
$GSENSOR,56,956,182
$GPRMC,072558.00,A,2730.67506,S,15255.07526,E,24.769,187.10,220420,,,A*4D
$GPVTG,187.10,T,,M,24.769,N,45.873,K,A*31
$GPGGA,072558.00,2730.67506,S,15255.07526,E,1,09,1.05,37.2,M,38.4,M,,*7C
$GPGSA,A,3,03,04,16,22,09,26,07,27,08,,,,2.17,1.05,1.89*05
$GPGSV,4,1,14,01,05,346,,03,66,352,39,04,57,181,36,06,06,239,*72
$GPGSV,4,2,14,07,25,284,25,08,06,029,08,09,34,222,27,16,53,104,37*77
$GPGSV,4,3,14,22,40,012,37,23,45,212,38,26,29,133,27,27,09,059,23*78
$GPGSV,4,4,14,31,02,126,,50,47,313,36*7B
$GPGLL,2730.67506,S,15255.07526,E,072558.00,A,A*7D
$GSENSOR,-30,926,120
$GPRMC,072559.00,A,2730.68213,S,15255.07443,E,25.890,185.81,220420,,,A*40
$GPVTG,185.81,T,,M,25.890,N,47.948,K,A*38
$GPGGA,072559.00,2730.68213,S,15255.07443,E,1,08,1.05,37.4,M,38.4,M,,*74
$GPGSA,A,3,03,04,16,22,09,26,07,08,,,,,2.17,1.05,1.89*00
$GPGSV,4,1,14,01,05,346,,03,66,352,34,04,57,181,37,06,06,239,*7E
$GPGSV,4,2,14,07,25,284,23,08,06,029,08,09,34,222,27,16,53,104,35*73
$GPGSV,4,3,14,22,40,012,36,23,45,212,35,26,29,133,34,27,09,059,*77
$GPGSV,4,4,14,31,02,126,,50,47,313,28*74
$GPGLL,2730.68213,S,15255.07443,E,072559.00,A,A*72
$GSENSOR,90,1024,260
$GPRMC,072600.00,A,2730.68955,S,15255.07377,E,27.132,184.54,220420,,,A*4C
$GPVTG,184.54,T,,M,27.132,N,50.249,K,A*3E
$GPGGA,072600.00,2730.68955,S,15255.07377,E,1,08,1.05,37.9,M,38.4,M,,*7F
$GPGSA,A,3,03,04,16,22,09,26,07,08,,,,,2.17,1.05,1.89*00
$GPGSV,4,1,14,01,05,346,,03,66,352,38,04,57,181,37,06,06,239,*72
$GPGSV,4,2,14,07,25,284,24,08,06,029,27,09,34,222,34,16,53,104,35*7B
$GPGSV,4,3,14,22,40,012,37,23,45,212,40,26,29,133,31,27,09,059,23*70
$GPGSV,4,4,14,31,02,126,,50,47,313,32*7F
$GPGLL,2730.68955,S,15255.07377,E,072600.00,A,A*74
$GSENSOR,-42,1040,206
$GPRMC,072601.00,A,2730.69728,S,15255.07326,E,28.095,183.64,220420,,,A*4B
$GPVTG,183.64,T,,M,28.095,N,52.032,K,A*35
$GPGGA,072601.00,2730.69728,S,15255.07326,E,1,07,1.05,38.6,M,38.4,M,,*70
$GPGSA,A,3,03,04,16,22,09,26,07,,,,,,2.17,1.05,1.89*08
$GPGSV,4,1,14,01,05,346,,03,66,352,41,04,57,181,37,06,06,239,*7C
$GPGSV,4,2,14,07,25,284,26,08,06,029,,09,34,222,30,16,53,104,32*7F
$GPGSV,4,3,14,22,40,012,38,23,45,212,36,26,29,133,29,27,09,059,20*74
$GPGSV,4,4,14,31,02,126,,50,47,313,39*74
$GPGLL,2730.69728,S,15255.07326,E,072601.00,A,A*74
$GSENSOR,-70,1062,250
$GPRMC,072602.00,A,2730.70525,S,15255.07274,E,29.036,183.73,220420,,,A*47
$GPVTG,183.73,T,,M,29.036,N,53.774,K,A*3F
$GPGGA,072602.00,2730.70525,S,15255.07274,E,1,07,1.05,39.7,M,38.4,M,,*72
$GPGSA,A,3,03,04,16,22,09,26,07,,,,,,2.17,1.05,1.89*08
$GPGSV,4,1,14,01,05,346,,03,66,352,40,04,57,181,38,06,06,239,*72
$GPGSV,4,2,14,07,25,284,26,08,06,029,19,09,34,222,31,16,53,104,35*71
$GPGSV,4,3,14,22,40,012,38,23,45,212,37,26,29,133,29,27,09,059,19*7F
$GPGSV,4,4,14,31,02,126,,50,47,313,37*7A
$GPGLL,2730.70525,S,15255.07274,E,072602.00,A,A*76
$GSENSOR,-12,966,250
$GPRMC,072603.00,A,2730.71351,S,15255.07204,E,30.073,184.52,220420,,,A*48
$GPVTG,184.52,T,,M,30.073,N,55.694,K,A*3B
$GPGGA,072603.00,2730.71351,S,15255.07204,E,1,08,1.05,40.7,M,38.4,M,,*71
$GPGSA,A,3,03,04,16,22,09,26,07,27,,,,,2.17,1.05,1.89*0D
$GPGSV,4,1,14,01,05,346,,03,66,352,39,04,57,181,38,06,06,239,*7C
$GPGSV,4,2,14,07,25,284,26,08,06,029,18,09,34,222,34,16,53,104,38*78
$GPGSV,4,3,14,22,40,012,38,23,45,212,35,26,29,133,33,27,09,059,19*76
$GPGSV,4,4,14,31,02,126,,50,47,313,35*78
$GPGLL,2730.71351,S,15255.07204,E,072603.00,A,A*74
$GSENSOR,52,980,206
$GPRMC,072604.00,A,2730.72200,S,15255.07147,E,30.824,183.50,220420,,,A*42
$GPVTG,183.50,T,,M,30.824,N,57.086,K,A*33
$GPGGA,072604.00,2730.72200,S,15255.07147,E,1,08,1.05,41.6,M,38.4,M,,*74
$GPGSA,A,3,03,04,16,22,09,26,07,27,,,,,2.17,1.05,1.89*0D
$GPGSV,4,1,14,01,05,346,,03,66,352,39,04,57,181,37,06,06,239,*73
$GPGSV,4,2,14,07,25,284,24,08,06,029,18,09,34,222,36,16,53,104,35*75
$GPGSV,4,3,14,22,40,012,39,23,45,212,32,26,29,133,29,27,09,059,20*71
$GPGSV,4,4,14,31,02,126,,50,47,313,32*7F
$GPGLL,2730.72200,S,15255.07147,E,072604.00,A,A*71
$GSENSOR,134,944,150
$GPRMC,072605.00,A,2730.73047,S,15255.07149,E,30.329,177.71,220420,,,A*43
$GPVTG,177.71,T,,M,30.329,N,56.169,K,A*3C
$GPGGA,072605.00,2730.73047,S,15255.07149,E,1,08,1.05,42.0,M,38.4,M,,*7E
$GPGSA,A,3,03,04,16,22,09,26,07,08,,,,,2.17,1.05,1.89*00
$GPGSV,4,1,14,01,05,346,,03,66,352,38,04,57,181,30,06,06,239,*75
$GPGSV,4,2,14,07,25,284,25,08,06,029,18,09,34,222,24,16,53,104,37*75
$GPGSV,4,3,14,22,40,012,41,23,45,212,26,26,29,133,28,27,09,059,*78
$GPGSV,4,4,14,31,02,126,,50,47,313,29*75
$GPGLL,2730.73047,S,15255.07149,E,072605.00,A,A*7E
$GSENSOR,200,946,146
$GPRMC,072606.00,A,2730.73869,S,15255.07298,E,29.515,168.75,220420,,,A*40
$GPVTG,168.75,T,,M,29.515,N,54.662,K,A*39
$GPGGA,072606.00,2730.73869,S,15255.07298,E,1,08,1.05,42.6,M,38.4,M,,*70
$GPGSA,A,3,03,04,16,22,09,26,07,08,,,,,2.17,1.05,1.89*00
$GPGSV,4,1,14,01,04,346,,03,66,352,33,04,57,181,37,06,06,239,*78
$GPGSV,4,2,14,07,25,284,25,08,06,029,19,09,34,222,31,16,53,104,37*70
$GPGSV,4,3,14,22,40,012,40,23,45,212,35,26,29,133,36,27,09,059,*74
$GPGSV,4,4,14,31,02,126,,50,47,313,27*7B
$GPGLL,2730.73869,S,15255.07298,E,072606.00,A,A*76
$GSENSOR,268,1166,126
$GPRMC,072607.00,A,2730.74622,S,15255.07635,E,29.079,156.61,220420,,,A*43
$GPVTG,156.61,T,,M,29.079,N,53.854,K,A*32
$GPGGA,072607.00,2730.74622,S,15255.07635,E,1,09,1.05,44.1,M,38.4,M,,*74
$GPGSA,A,3,03,04,16,22,09,26,07,27,08,,,,2.17,1.05,1.89*05
$GPGSV,4,1,14,01,04,346,,03,66,352,32,04,57,181,36,06,06,239,*78
$GPGSV,4,2,14,07,25,284,30,08,06,029,20,09,34,222,37,16,53,104,37*78
$GPGSV,4,3,14,22,40,012,43,23,45,212,35,26,29,133,40,27,09,059,32*77
$GPGSV,4,4,14,31,02,126,,50,47,313,32*7F
$GPGLL,2730.74622,S,15255.07635,E,072607.00,A,A*72
$GSENSOR,310,1076,332
$GPRMC,072608.00,A,2730.75306,S,15255.08119,E,29.399,144.94,220420,,,A*4C
$GPVTG,144.94,T,,M,29.399,N,54.447,K,A*3F
$GPGGA,072608.00,2730.75306,S,15255.08119,E,1,09,1.05,44.7,M,38.4,M,,*79
$GPGSA,A,3,03,04,16,22,09,26,07,27,08,,,,2.17,1.05,1.89*05
$GPGSV,4,1,14,01,04,346,,03,66,352,41,04,57,181,38,06,06,239,*72
$GPGSV,4,2,14,07,25,284,34,08,06,029,21,09,34,222,34,16,53,104,41*7F
$GPGSV,4,3,14,22,40,012,41,23,45,212,37,26,29,133,38,27,09,059,32*78
$GPGSV,4,4,14,31,02,126,,50,47,313,33*7E
$GPGLL,2730.75306,S,15255.08119,E,072608.00,A,A*79
$GSENSOR,180,1022,246
$GPRMC,072609.00,A,2730.75915,S,15255.08744,E,29.408,134.62,220420,,,A*4A
$GPVTG,134.62,T,,M,29.408,N,54.464,K,A*3F
$GPGGA,072609.00,2730.75915,S,15255.08744,E,1,08,1.05,45.0,M,38.4,M,,*79
$GPGSA,A,3,03,04,16,22,09,26,07,27,,,,,2.17,1.05,1.89*0D
$GPGSV,4,1,14,01,04,346,,03,66,352,42,04,58,180,34,06,06,239,*73
$GPGSV,4,2,14,07,25,284,37,08,06,029,,09,34,222,38,16,53,104,40*72
$GPGSV,4,3,14,22,40,012,35,23,45,212,42,26,29,133,38,27,09,059,24*7E
$GPGSV,4,4,14,31,02,126,,50,47,313,36*7B
$GPGLL,2730.75915,S,15255.08744,E,072609.00,A,A*7E
$GSENSOR,198,990,58
$GPRMC,072610.00,A,2730.76429,S,15255.09485,E,29.698,126.49,220420,,,A*4D
$GPVTG,126.49,T,,M,29.698,N,55.000,K,A*39
$GPGGA,072610.00,2730.76429,S,15255.09485,E,1,08,1.05,45.9,M,38.4,M,,*76
$GPGSA,A,3,03,04,16,22,09,26,07,27,,,,,2.17,1.05,1.89*0D
$GPGSV,4,1,14,01,04,346,,03,66,352,44,04,58,180,34,06,06,239,21*76
$GPGSV,4,2,14,07,25,284,38,08,06,029,20,09,34,222,39,16,53,104,42*7C
$GPGSV,4,3,14,22,40,012,39,23,45,212,43,26,29,133,37,27,09,059,22*7A
$GPGSV,4,4,14,31,02,126,,50,47,313,36*7B
$GPGLL,2730.76429,S,15255.09485,E,072610.00,A,A*78
$GSENSOR,40,1050,52
$GPRMC,072611.00,A,2730.76904,S,15255.10236,E,29.837,124.52,220420,,,A*4B
$GPVTG,124.52,T,,M,29.837,N,55.258,K,A*35
$GPGGA,072611.00,2730.76904,S,15255.10236,E,1,08,1.05,46.5,M,38.4,M,,*7C
$GPGSA,A,3,03,04,16,22,09,26,07,27,,,,,2.17,1.05,1.89*0D
$GPGSV,4,1,14,01,04,346,,03,66,352,43,04,58,180,30,06,06,239,19*7E
$GPGSV,4,2,14,07,25,284,32,08,06,029,19,09,34,222,36,16,53,104,40*71
$GPGSV,4,3,14,22,40,012,31,23,45,212,39,26,29,133,38,27,09,059,21*73
$GPGSV,4,4,14,31,02,126,,50,47,313,36*7B
$GPGLL,2730.76904,S,15255.10236,E,072611.00,A,A*7D
$GSENSOR,84,892,-78
$GPRMC,072612.00,A,2730.77367,S,15255.11002,E,29.841,124.35,220420,,,A*42
$GPVTG,124.35,T,,M,29.841,N,55.266,K,A*38
$GPGGA,072612.00,2730.77367,S,15255.11002,E,1,08,1.05,47.1,M,38.4,M,,*70
$GPGSA,A,3,03,04,16,22,09,26,07,27,,,,,2.17,1.05,1.89*0D
$GPGSV,4,1,14,01,04,346,,03,66,352,43,04,58,180,35,06,06,239,18*7A
$GPGSV,4,2,14,07,25,284,34,08,06,029,18,09,34,222,32,16,53,104,41*73
$GPGSV,4,3,14,22,40,012,35,23,45,212,31,26,29,133,35,27,09,059,18*78
$GPGSV,4,4,14,31,02,126,,50,47,313,35*78
$GPGLL,2730.77367,S,15255.11002,E,072612.00,A,A*74
$GSENSOR,40,954,134
$GPRMC,072613.00,A,2730.77835,S,15255.11783,E,30.111,124.24,220420,,,A*45
$GPVTG,124.24,T,,M,30.111,N,55.766,K,A*39
$GPGGA,072613.00,2730.77835,S,15255.11783,E,1,09,1.05,47.2,M,38.4,M,,*71
$GPGSA,A,3,03,04,16,22,09,26,07,27,08,,,,2.17,1.05,1.89*05
$GPGSV,4,1,14,01,04,346,,03,66,352,37,04,58,180,35,06,06,239,17*76
$GPGSV,4,2,14,07,25,284,22,08,06,029,19,09,34,222,35,16,53,104,42*71
$GPGSV,4,3,14,22,40,012,35,23,45,212,39,26,29,133,33,27,09,059,15*7B
$GPGSV,4,4,14,31,02,126,,50,47,313,32*7F
$GPGLL,2730.77835,S,15255.11783,E,072613.00,A,A*77
$GSENSOR,-16,986,22
$GPRMC,072614.00,A,2730.78302,S,15255.12550,E,29.852,124.71,220420,,,A*4B
$GPVTG,124.71,T,,M,29.852,N,55.285,K,A*37
$GPGGA,072614.00,2730.78302,S,15255.12550,E,1,09,1.05,47.1,M,38.4,M,,*7A
$GPGSA,A,3,03,04,16,22,09,26,07,27,08,,,,2.16,1.05,1.89*04
$GPGSV,4,1,14,01,04,346,,03,66,352,41,04,58,180,30,06,06,239,16*73
$GPGSV,4,2,14,07,25,284,23,08,06,029,17,09,34,222,35,16,53,104,42*7E
$GPGSV,4,3,14,22,40,012,27,23,45,212,32,26,29,133,32,27,09,059,15*72
$GPGSV,4,4,14,31,02,126,,50,47,313,34*79
$GPGLL,2730.78302,S,15255.12550,E,072614.00,A,A*7F
$GSENSOR,32,894,10
$GPRMC,072615.00,A,2730.78770,S,15255.13327,E,30.161,124.36,220420,,,A*4E
$GPVTG,124.36,T,,M,30.161,N,55.859,K,A*3E
$GPGGA,072615.00,2730.78770,S,15255.13327,E,1,09,1.05,47.1,M,38.4,M,,*7D
$GPGSA,A,3,03,04,16,22,09,26,07,27,08,,,,2.16,1.05,1.89*04
$GPGSV,4,1,14,01,04,346,,03,66,352,38,04,58,180,22,06,06,239,16*7E
$GPGSV,4,2,14,07,25,284,23,08,06,029,13,09,34,222,34,16,53,104,43*7A
$GPGSV,4,3,14,22,40,012,34,23,45,212,38,26,29,133,32,27,09,059,15*7A
$GPGSV,4,4,14,31,02,126,,50,47,313,33*7E
$GPGLL,2730.78770,S,15255.13327,E,072615.00,A,A*78
$GSENSOR,-36,980,60
$GPRMC,072616.00,A,2730.79235,S,15255.14105,E,30.035,123.94,220420,,,A*42
$GPVTG,123.94,T,,M,30.035,N,55.625,K,A*34
$GPGGA,072616.00,2730.79235,S,15255.14105,E,1,07,1.05,46.8,M,38.4,M,,*78
$GPGSA,A,3,03,04,16,22,09,26,07,,,,,,2.16,1.05,1.89*09
$GPGSV,4,1,14,01,04,346,,03,66,352,42,04,58,180,25,06,06,239,17*75
$GPGSV,4,2,14,07,25,284,24,08,06,029,09,09,34,222,31,16,53,104,42*72
$GPGSV,4,3,14,22,40,012,36,23,45,212,36,26,29,133,35,27,09,059,*75
$GPGSV,4,4,14,31,02,126,,50,47,313,33*7E
$GPGLL,2730.79235,S,15255.14105,E,072616.00,A,A*7B
$GSENSOR,-34,1022,48
$GPRMC,072617.00,A,2730.79720,S,15255.14866,E,29.947,125.39,220420,,,A*4B
$GPVTG,125.39,T,,M,29.947,N,55.462,K,A*30
$GPGGA,072617.00,2730.79720,S,15255.14866,E,1,07,1.05,46.5,M,38.4,M,,*79
$GPGSA,A,3,03,04,16,22,09,26,07,,,,,,2.16,1.05,1.89*09
$GPGSV,4,1,14,01,04,346,,03,66,352,40,04,58,180,26,06,06,239,16*75
$GPGSV,4,2,14,07,25,284,24,08,06,029,08,09,34,222,32,16,53,104,41*73
$GPGSV,4,3,14,22,40,012,40,23,45,212,36,26,29,133,37,27,09,059,*76
$GPGSV,4,4,14,31,02,126,,50,47,313,33*7E
$GPGLL,2730.79720,S,15255.14866,E,072617.00,A,A*77
$GSENSOR,-10,1024,14
$GPRMC,072618.00,A,2730.80229,S,15255.15601,E,29.850,128.20,220420,,,A*42
$GPVTG,128.20,T,,M,29.850,N,55.283,K,A*3B
$GPGGA,072618.00,2730.80229,S,15255.15601,E,1,07,1.05,46.2,M,38.4,M,,*75
$GPGSA,A,3,03,04,16,22,09,26,07,,,,,,2.16,1.05,1.89*09
$GPGSV,4,1,14,01,04,346,,03,66,352,36,04,58,180,35,06,06,239,16*76
$GPGSV,4,2,14,07,25,284,25,08,06,029,08,09,34,222,35,16,53,104,40*74
