$GPRMC,070303.00,A,2730.39720,S,15254.66131,E,0.000,,210420,,,A*62
$GPVTG,,T,,M,0.000,N,0.000,K,A*23
$GPGGA,070303.00,2730.39720,S,15254.66131,E,1,09,2.01,40.3,M,38.5,M,,*78
$GPGSA,A,3,03,22,16,04,26,09,07,01,31,,,,3.40,2.01,2.75*0F
$GPGSV,4,1,15,01,12,337,26,03,79,332,44,04,51,199,41,06,04,228,*78
$GPGSV,4,2,15,07,17,294,16,08,00,020,,09,26,231,36,14,03,085,07*7C
$GPGSV,4,3,15,16,53,083,44,22,53,013,42,23,37,222,36,26,37,123,36*75
$GPGSV,4,4,15,27,03,049,27,31,10,132,31,50,47,313,*45
$GPGLL,2730.39720,S,15254.66131,E,070303.00,A,A*7E
$GSENSOR,76,976,148
$GPRMC,070304.00,A,2730.39720,S,15254.66131,E,0.000,,210420,,,A*65
$GPVTG,,T,,M,0.000,N,0.000,K,A*23
$GPGGA,070304.00,2730.39720,S,15254.66131,E,1,09,1.27,40.3,M,38.5,M,,*78
$GPGSA,A,3,03,22,16,04,26,09,07,01,31,,,,1.82,1.27,1.31*07
$GPGSV,4,1,15,01,12,337,31,03,79,332,44,04,51,199,41,06,04,228,*7E
$GPGSV,4,2,15,07,17,294,27,08,00,020,,09,26,231,36,14,03,085,07*7E
$GPGSV,4,3,15,16,53,083,45,22,53,013,42,23,37,222,29,26,37,123,36*7A
$GPGSV,4,4,15,27,03,049,26,31,10,132,32,50,47,313,*47
$GPGLL,2730.39720,S,15254.66131,E,070304.00,A,A*79
$GSENSOR,110,1000,104
$GPRMC,070305.00,A,2730.39720,S,15254.66131,E,0.000,,210420,,,A*64
$GPVTG,,T,,M,0.000,N,0.000,K,A*23
$GPGGA,070305.00,2730.39720,S,15254.66131,E,1,08,1.27,40.3,M,38.5,M,,*78
$GPGSA,A,3,03,22,16,04,26,07,01,31,,,,,1.82,1.27,1.31*0E
$GPGSV,4,1,15,01,12,337,24,03,79,332,43,04,51,199,41,06,04,228,*7D
$GPGSV,4,2,15,07,17,294,20,08,00,020,,09,26,231,39,14,03,085,07*76
$GPGSV,4,3,15,16,53,083,44,22,53,013,42,23,37,222,33,26,37,123,38*7E
$GPGSV,4,4,15,27,03,049,24,31,10,132,27,50,47,313,*41
$GPGLL,2730.39720,S,15254.66131,E,070305.00,A,A*78
$GSENSOR,140,1034,104
$GPRMC,070306.00,A,2730.39720,S,15254.66131,E,0.000,,210420,,,A*67
$GPVTG,,T,,M,0.000,N,0.000,K,A*23
$GPGGA,070306.00,2730.39720,S,15254.66131,E,1,09,1.27,40.3,M,38.5,M,,*7A
$GPGSA,A,3,03,22,16,04,26,09,07,01,31,,,,1.82,1.27,1.31*07
$GPGSV,4,1,15,01,12,337,23,03,79,332,41,04,51,199,37,06,04,228,*79
$GPGSV,4,2,15,07,17,294,29,08,00,020,,09,26,231,41,14,03,085,07*70
$GPGSV,4,3,15,16,53,083,41,22,53,013,45,23,37,222,41,26,37,123,41*77
$GPGSV,4,4,15,27,03,049,22,31,10,132,27,50,47,313,*47
$GPGLL,2730.39720,S,15254.66131,E,070306.00,A,A*7B
$GSENSOR,196,980,90
$GPRMC,070307.00,A,2730.39720,S,15254.66131,E,0.000,,210420,,,A*66
$GPVTG,,T,,M,0.000,N,0.000,K,A*23
$GPGGA,070307.00,2730.39720,S,15254.66131,E,1,08,1.27,40.3,M,38.5,M,,*7A
$GPGSA,A,3,03,22,16,04,26,07,01,31,,,,,1.82,1.27,1.31*0E
$GPGSV,4,1,15,01,12,337,25,03,79,332,41,04,51,199,39,06,04,228,*71
$GPGSV,4,2,15,07,17,294,28,08,00,020,,09,26,231,,14,03,085,07*74
$GPGSV,4,3,15,16,53,083,35,22,53,013,42,23,37,222,38,26,37,123,33*78
$GPGSV,4,4,15,27,03,049,21,31,10,132,29,50,47,313,*4A
$GPGLL,2730.39720,S,15254.66131,E,070307.00,A,A*7A
$GSENSOR,194,900,186
$GPRMC,070308.00,A,2730.39817,S,15254.66276,E,5.948,120.64,210420,,,A*7D
$GPVTG,120.64,T,,M,5.948,N,11.015,K,A*08
$GPGGA,070308.00,2730.39817,S,15254.66276,E,1,09,1.27,40.3,M,38.5,M,,*7F
$GPGSA,A,3,03,22,16,04,26,09,07,01,31,,,,1.82,1.27,1.31*07
$GPGSV,4,1,15,01,12,337,34,03,79,332,41,04,51,199,27,06,04,228,*7E
$GPGSV,4,2,15,07,17,294,29,08,00,020,,09,26,231,32,14,03,085,13*71
$GPGSV,4,3,15,16,53,083,41,22,53,013,43,23,37,222,41,26,37,123,40*70
$GPGSV,4,4,15,27,04,049,20,31,10,132,28,50,47,313,*4D
$GPGLL,2730.39817,S,15254.66276,E,070308.00,A,A*7E
$GSENSOR,138,982,290
$GPRMC,070309.00,A,2730.39895,S,15254.66523,E,8.311,103.12,210420,,,A*7A
$GPVTG,103.12,T,,M,8.311,N,15.393,K,A*0A
$GPGGA,070309.00,2730.39895,S,15254.66523,E,1,08,1.27,40.5,M,38.5,M,,*74
$GPGSA,A,3,03,22,16,04,26,07,01,31,,,,,1.82,1.27,1.31*0E
$GPGSV,4,1,15,01,12,337,30,03,79,332,37,04,51,199,35,06,04,228,*78
$GPGSV,4,2,15,07,17,294,28,08,00,020,,09,26,231,,14,03,085,13*71
$GPGSV,4,3,15,16,53,083,40,22,53,013,43,23,37,222,39,26,37,123,35*7C
$GPGSV,4,4,15,27,04,049,28,31,10,132,26,50,47,313,*4B
$GPGLL,2730.39895,S,15254.66523,E,070309.00,A,A*72
$GSENSOR,-126,994,182
$GPRMC,070310.00,A,2730.39960,S,15254.66842,E,10.911,100.12,210420,,,A*43
$GPVTG,100.12,T,,M,10.911,N,20.208,K,A*3F
$GPGGA,070310.00,2730.39960,S,15254.66842,E,1,09,1.27,40.7,M,38.5,M,,*7E
$GPGSA,A,3,03,22,16,04,26,09,07,01,31,,,,1.82,1.27,1.31*07
$GPGSV,4,1,15,01,12,337,24,03,79,332,38,04,51,199,30,06,04,228,*77
$GPGSV,4,2,15,07,17,294,26,08,00,020,,09,26,231,28,14,03,085,12*74
$GPGSV,4,3,15,16,53,083,35,22,53,013,39,23,37,222,40,26,37,123,27*7E
$GPGSV,4,4,15,27,04,049,,31,10,132,24,50,47,313,*43
$GPGLL,2730.39960,S,15254.66842,E,070310.00,A,A*7B
$GSENSOR,-34,836,378
$GPRMC,070311.00,A,2730.40043,S,15254.67237,E,13.244,99.63,210420,,,A*72
$GPVTG,99.63,T,,M,13.244,N,24.528,K,A*01
$GPGGA,070311.00,2730.40043,S,15254.67237,E,1,09,1.27,40.9,M,38.5,M,,*7E
$GPGSA,A,3,03,22,16,04,26,09,07,01,31,,,,1.82,1.27,1.31*07
$GPGSV,4,1,15,01,12,337,31,03,79,332,39,04,51,199,31,06,04,228,*73
$GPGSV,4,2,15,07,17,294,26,08,00,020,,09,26,231,34,14,03,085,13*78
$GPGSV,4,3,15,16,53,083,37,22,53,013,41,23,37,222,41,26,37,123,31*75
$GPGSV,4,4,15,27,04,049,22,31,10,132,32,50,47,313,*44
$GPGLL,2730.40043,S,15254.67237,E,070311.00,A,A*75
$GSENSOR,16,1050,88
$GPRMC,070312.00,A,2730.40128,S,15254.67701,E,15.509,99.36,210420,,,A*75
$GPVTG,99.36,T,,M,15.509,N,28.722,K,A*0D
$GPGGA,070312.00,2730.40128,S,15254.67701,E,1,08,1.27,41.3,M,38.5,M,,*7B
$GPGSA,A,3,03,22,16,04,26,07,01,31,,,,,1.82,1.27,1.31*0E
$GPGSV,4,1,15,01,12,337,30,03,79,332,39,04,51,199,29,06,04,228,*7B
$GPGSV,4,2,15,07,17,294,27,08,00,020,,09,26,231,,14,03,085,13*7E
$GPGSV,4,3,15,16,53,083,37,22,53,013,42,23,37,222,40,26,37,123,32*74
$GPGSV,4,4,15,27,04,049,29,31,10,132,34,50,47,313,*49
$GPGLL,2730.40128,S,15254.67701,E,070312.00,A,A*7A
$GSENSOR,-28,1078,316
$GPRMC,070313.00,A,2730.40235,S,15254.68250,E,17.821,99.59,210420,,,A*79
$GPVTG,99.59,T,,M,17.821,N,33.005,K,A*09
$GPGGA,070313.00,2730.40235,S,15254.68250,E,1,09,1.27,41.8,M,38.5,M,,*71
$GPGSA,A,3,03,22,16,04,26,09,07,01,31,,,,1.82,1.27,1.31*07
$GPGSV,4,1,15,01,12,337,31,03,79,332,41,04,51,199,28,06,04,228,*74
$GPGSV,4,2,15,07,17,294,31,08,00,020,,09,26,231,37,14,03,085,13*7D
$GPGSV,4,3,15,16,53,083,38,22,53,013,41,23,37,222,37,26,37,123,36*7C
$GPGSV,4,4,15,27,04,049,21,31,10,132,36,50,47,313,*43
$GPGLL,2730.40235,S,15254.68250,E,070313.00,A,A*7A
$GSENSOR,-262,908,402
$GPRMC,070314.00,A,2730.40348,S,15254.68858,E,20.110,99.87,210420,,,A*7B
$GPVTG,99.87,T,,M,20.110,N,37.244,K,A*06
$GPGGA,070314.00,2730.40348,S,15254.68858,E,1,08,1.27,42.4,M,38.5,M,,*71
$GPGSA,A,3,03,22,16,04,26,07,01,31,,,,,1.82,1.27,1.31*0E
$GPGSV,4,1,15,01,12,337,24,03,79,332,40,04,51,199,27,06,04,228,*7E
$GPGSV,4,2,15,07,17,294,31,08,00,020,,09,26,231,,14,03,085,14*7E
$GPGSV,4,3,15,16,53,083,39,22,53,013,42,23,37,222,39,26,37,123,34*72
$GPGSV,4,4,15,27,04,049,21,31,10,132,29,50,47,313,*4D
$GPGLL,2730.40348,S,15254.68858,E,070314.00,A,A*74
$GSENSOR,108,970,-30
$GPRMC,070315.00,A,2730.40472,S,15254.69534,E,22.473,100.44,210420,,,A*4E
$GPVTG,100.44,T,,M,22.473,N,41.620,K,A*3D
$GPGGA,070315.00,2730.40472,S,15254.69534,E,1,09,1.27,42.8,M,38.5,M,,*75
$GPGSA,A,3,03,22,16,04,26,09,07,01,31,,,,1.82,1.27,1.31*07
$GPGSV,4,1,15,01,12,337,24,03,79,332,39,04,51,199,26,06,04,228,*71
$GPGSV,4,2,15,07,17,294,31,08,00,020,,09,26,231,34,14,03,085,14*79
$GPGSV,4,3,15,16,53,083,39,22,53,013,40,23,37,222,37,26,37,123,32*78
$GPGSV,4,4,15,27,04,049,20,31,10,132,20,50,47,313,*45
$GPGLL,2730.40472,S,15254.69534,E,070315.00,A,A*7D
$GSENSOR,-80,952,-68
$GPRMC,070316.00,A,2730.40607,S,15254.70281,E,24.429,101.12,210420,,,A*47
$GPVTG,101.12,T,,M,24.429,N,45.243,K,A*33
$GPGGA,070316.00,2730.40607,S,15254.70281,E,1,07,1.36,42.8,M,38.5,M,,*79
$GPGSA,A,3,03,22,16,04,26,07,01,,,,,,2.28,1.36,1.83*06
$GPGSV,4,1,15,01,12,337,25,03,79,332,40,04,51,199,27,06,04,228,*7F
$GPGSV,4,2,15,07,17,294,35,08,00,020,,09,26,231,,14,03,085,14*7A
$GPGSV,4,3,15,16,53,083,41,22,53,013,41,23,37,222,39,26,37,123,36*7C
$GPGSV,4,4,15,27,04,049,19,31,10,132,,50,47,313,*4D
$GPGLL,2730.40607,S,15254.70281,E,070316.00,A,A*7F
$GSENSOR,278,914,152
$GPRMC,070317.00,A,2730.40738,S,15254.71061,E,25.279,100.73,210420,,,A*42
$GPVTG,100.73,T,,M,25.279,N,46.817,K,A*3F
$GPGGA,070317.00,2730.40738,S,15254.71061,E,1,09,1.27,42.6,M,38.5,M,,*78
$GPGSA,A,3,03,22,16,04,26,09,07,01,31,,,,1.82,1.27,1.31*07
$GPGSV,4,1,15,01,12,337,22,03,79,332,40,04,51,199,29,06,04,228,*76
$GPGSV,4,2,15,07,17,294,35,08,00,020,,09,26,231,34,14,03,085,12*7B
$GPGSV,4,3,15,16,53,083,41,22,53,013,39,23,37,222,40,26,37,123,38*73
$GPGSV,4,4,15,27,04,049,,31,10,132,35,50,47,313,*43
$GPGLL,2730.40738,S,15254.71061,E,070317.00,A,A*7E
$GSENSOR,84,880,-252
$GPRMC,070318.00,A,2730.40868,S,15254.71843,E,25.368,100.04,210420,,,A*4E
$GPVTG,100.04,T,,M,25.368,N,46.982,K,A*33
$GPGGA,070318.00,2730.40868,S,15254.71843,E,1,08,1.27,42.0,M,38.5,M,,*72
$GPGSA,A,3,03,22,16,04,26,07,01,31,,,,,1.82,1.27,1.31*0E
$GPGSV,4,1,15,01,12,337,22,03,79,332,40,04,51,199,34,06,04,228,*7A
$GPGSV,4,2,15,07,17,294,34,08,00,020,,09,26,231,,14,03,085,27*7B
$GPGSV,4,3,15,16,53,083,42,22,53,013,40,23,37,222,40,26,37,123,39*7F
$GPGSV,4,4,15,27,04,049,23,31,10,132,35,50,47,313,*42
$GPGLL,2730.40868,S,15254.71843,E,070318.00,A,A*73
$GSENSOR,-4,890,118
$GPRMC,070319.00,A,2730.40977,S,15254.72637,E,25.604,99.18,210420,,,A*7D
$GPVTG,99.18,T,,M,25.604,N,47.419,K,A*0E
$GPGGA,070319.00,2730.40977,S,15254.72637,E,1,09,1.27,41.5,M,38.5,M,,*75
$GPGSA,A,3,03,22,16,04,26,09,07,01,31,,,,1.82,1.27,1.31*07
$GPGSV,4,1,15,01,12,337,23,03,79,332,41,04,51,199,33,06,04,228,*7D
$GPGSV,4,2,15,07,17,294,33,08,00,020,,09,26,231,36,14,03,085,24*7A
$GPGSV,4,3,15,16,53,083,42,22,53,013,41,23,37,222,40,26,37,123,36*71
$GPGSV,4,4,15,27,04,049,23,31,10,132,26,50,47,313,*40
$GPGLL,2730.40977,S,15254.72637,E,070319.00,A,A*73
$GSENSOR,152,684,34
$GPRMC,070320.00,A,2730.41086,S,15254.73436,E,25.868,99.15,210420,,,A*7A
$GPVTG,99.15,T,,M,25.868,N,47.908,K,A*0A
$GPGGA,070320.00,2730.41086,S,15254.73436,E,1,08,1.27,40.8,M,38.5,M,,*76
$GPGSA,A,3,03,22,16,04,26,07,01,31,,,,,1.82,1.27,1.31*0E
$GPGSV,4,1,15,01,12,337,24,03,79,332,40,04,51,199,28,06,04,228,*71
$GPGSV,4,2,15,07,17,294,33,08,00,020,,09,26,231,,14,03,085,23*78
$GPGSV,4,3,15,16,53,083,42,22,53,013,43,23,37,222,40,26,37,123,34*71
$GPGSV,4,4,15,27,04,049,23,31,10,132,24,50,47,313,*42
$GPGLL,2730.41086,S,15254.73436,E,070320.00,A,A*7D
$GSENSOR,64,1094,178
$GPRMC,070321.00,A,2730.41203,S,15254.74232,E,25.830,99.81,210420,,,A*71
$GPVTG,99.81,T,,M,25.830,N,47.837,K,A*07
$GPGGA,070321.00,2730.41203,S,15254.74232,E,1,08,1.36,39.9,M,38.5,M,,*72
$GPGSA,A,3,03,22,16,04,26,09,07,01,,,,,2.28,1.36,1.83*0F
$GPGSV,4,1,15,01,12,337,26,03,79,332,38,04,51,199,26,06,04,228,*72
$GPGSV,4,2,15,07,17,294,34,08,00,020,,09,26,231,35,14,03,085,20*7A
$GPGSV,4,3,15,16,53,083,43,22,53,013,42,23,37,222,40,26,37,123,32*77
$GPGSV,4,4,15,27,04,049,30,31,10,132,,50,47,313,*46
$GPGLL,2730.41203,S,15254.74232,E,070321.00,A,A*76
$GSENSOR,44,954,-86
$GPRMC,070322.00,A,2730.41317,S,15254.75036,E,25.995,98.93,210420,,,A*7D
$GPVTG,98.93,T,,M,25.995,N,48.143,K,A*0E
$GPGGA,070322.00,2730.41317,S,15254.75036,E,1,07,1.36,38.8,M,38.5,M,,*7D
$GPGSA,A,3,03,22,16,04,26,07,01,,,,,,2.28,1.36,1.83*06
$GPGSV,4,1,15,01,12,337,25,03,79,332,38,04,51,199,24,06,04,228,*73
$GPGSV,4,2,15,07,17,294,33,08,00,020,,09,26,231,,14,03,085,20*7B
$GPGSV,4,3,15,16,53,083,42,22,53,013,42,23,37,222,39,26,37,123,35*7F
$GPGSV,4,4,15,27,04,049,22,31,10,132,26,50,47,313,*41
$GPGLL,2730.41317,S,15254.75036,E,070322.00,A,A*76
$GSENSOR,-42,972,130
$GPRMC,070323.00,A,2730.41441,S,15254.75860,E,26.738,99.41,210420,,,A*77
$GPVTG,99.41,T,,M,26.738,N,49.519,K,A*00
$GPGGA,070323.00,2730.41441,S,15254.75860,E,1,09,1.27,37.4,M,38.5,M,,*7E
$GPGSA,A,3,03,22,16,04,26,09,07,01,31,,,,1.82,1.27,1.31*07
$GPGSV,4,1,15,01,12,337,26,03,79,332,39,04,51,199,26,06,04,228,*73
$GPGSV,4,2,15,07,17,294,30,08,00,020,,09,26,231,36,14,03,085,19*77
$GPGSV,4,3,15,16,53,083,39,22,53,013,42,23,37,222,40,26,37,123,38*70
$GPGSV,4,4,15,27,04,049,21,31,10,132,25,50,47,313,*41
$GPGLL,2730.41441,S,15254.75860,E,070323.00,A,A*78
$GSENSOR,144,988,-226
$GPRMC,070324.00,A,2730.41565,S,15254.76706,E,27.493,99.16,210420,,,A*7A
$GPVTG,99.16,T,,M,27.493,N,50.917,K,A*0B
$GPGGA,070324.00,2730.41565,S,15254.76706,E,1,08,1.27,36.2,M,38.5,M,,*74
$GPGSA,A,3,03,22,16,04,26,07,01,31,,,,,1.82,1.27,1.31*0E
$GPGSV,4,1,15,01,12,337,26,03,79,332,37,04,51,199,27,06,04,228,*7C
$GPGSV,4,2,15,07,17,294,30,08,00,020,,09,26,231,,14,03,085,17*7C
$GPGSV,4,3,15,16,53,083,41,22,53,013,39,23,37,222,39,26,37,123,35*70
$GPGSV,4,4,15,27,04,049,19,31,10,132,25,50,47,313,*4A
$GPGLL,2730.41565,S,15254.76706,E,070324.00,A,A*74
$GSENSOR,62,1104,-6
$GPRMC,070325.00,A,2730.41686,S,15254.77545,E,27.032,99.45,210420,,,A*78
$GPVTG,99.45,T,,M,27.032,N,50.064,K,A*0F
$GPGGA,070325.00,2730.41686,S,15254.77545,E,1,09,1.27,35.2,M,38.5,M,,*7D
$GPGSA,A,3,03,22,16,04,26,09,07,01,31,,,,1.82,1.27,1.31*07
$GPGSV,4,1,15,01,12,337,24,03,79,332,41,04,51,199,27,06,04,228,*7F
$GPGSV,4,2,15,07,17,294,30,08,00,020,,09,26,231,30,14,03,085,16*7E
$GPGSV,4,3,15,16,53,083,41,22,53,013,39,23,37,222,39,26,37,123,34*71
$GPGSV,4,4,15,27,04,049,17,31,10,132,25,50,47,313,*44
$GPGLL,2730.41686,S,15254.77545,E,070325.00,A,A*7F
$GSENSOR,-138,1060,110
$GPRMC,070326.00,A,2730.41809,S,15254.78363,E,26.298,99.27,210420,,,A*78
$GPVTG,99.27,T,,M,26.298,N,48.703,K,A*07
$GPGGA,070326.00,2730.41809,S,15254.78363,E,1,08,1.27,34.3,M,38.5,M,,*7B
$GPGSA,A,3,03,22,16,04,26,07,01,31,,,,,1.82,1.27,1.31*0E
$GPGSV,4,1,15,01,12,337,23,03,79,332,41,04,51,199,32,06,04,228,*7C
$GPGSV,4,2,15,07,17,294,29,08,00,020,,09,26,231,,14,03,085,14*77
$GPGSV,4,3,15,16,53,083,42,22,53,013,37,23,37,222,36,26,37,123,33*74
$GPGSV,4,4,15,27,04,049,,31,10,132,32,50,47,313,*44
$GPGLL,2730.41809,S,15254.78363,E,070326.00,A,A*78
$GSENSOR,78,706,214
$GPRMC,070327.00,A,2730.41933,S,15254.79162,E,25.657,99.26,210420,,,A*76
$GPVTG,99.26,T,,M,25.657,N,47.517,K,A*0A
$GPGGA,070327.00,2730.41933,S,15254.79162,E,1,09,1.27,33.7,M,38.5,M,,*72
$GPGSA,A,3,03,22,16,04,26,09,07,01,31,,,,1.82,1.27,1.31*07
$GPGSV,4,1,15,01,12,337,21,03,79,332,41,04,51,199,32,06,04,228,*7E
$GPGSV,4,2,15,07,17,294,21,08,00,020,,09,26,231,37,14,03,085,11*7E
$GPGSV,4,3,15,16,53,083,39,22,53,013,41,23,37,222,38,26,37,123,35*71
$GPGSV,4,4,15,27,04,049,,31,10,132,32,50,47,313,*44
$GPGLL,2730.41933,S,15254.79162,E,070327.00,A,A*73
$GSENSOR,22,1214,46
$GPRMC,070328.00,A,2730.42058,S,15254.79949,E,25.433,99.79,210420,,,A*75
$GPVTG,99.79,T,,M,25.433,N,47.102,K,A*00
$GPGGA,070328.00,2730.42058,S,15254.79949,E,1,09,1.27,33.1,M,38.5,M,,*7D
$GPGSA,A,3,03,22,16,04,26,09,07,01,31,,,,1.82,1.27,1.31*07
$GPGSV,4,1,15,01,12,337,21,03,79,332,40,04,51,199,32,06,04,228,*7F
$GPGSV,4,2,15,07,17,294,18,08,00,020,,09,26,231,34,14,03,085,11*77
$GPGSV,4,3,15,16,53,083,41,22,53,013,43,23,37,222,38,26,37,123,32*7B
$GPGSV,4,4,15,27,04,049,,31,10,132,26,50,47,313,*41
$GPGLL,2730.42058,S,15254.79949,E,070328.00,A,A*7A
$GSENSOR,26,1006,154
$GPRMC,070329.00,A,2730.42183,S,15254.80733,E,25.234,100.42,210420,,,A*4E
$GPVTG,100.42,T,,M,25.234,N,46.734,K,A*3A
$GPGGA,070329.00,2730.42183,S,15254.80733,E,1,07,1.36,32.6,M,38.5,M,,*76
$GPGSA,A,3,03,22,16,04,26,07,01,,,,,,2.28,1.36,1.83*06
$GPGSV,4,1,15,01,12,338,20,03,79,332,40,04,51,199,30,06,04,228,*73
$GPGSV,4,2,15,07,17,294,27,08,00,020,,09,26,231,,14,03,085,09*75
$GPGSV,4,3,15,16,53,083,41,22,53,013,42,23,37,222,39,26,37,123,33*7A
$GPGSV,4,4,15,27,04,049,,31,10,132,28,50,47,313,*4F
$GPGLL,2730.42183,S,15254.80733,E,070329.00,A,A*79
$GSENSOR,108,1038,2
$GPRMC,070330.00,A,2730.42330,S,15254.81513,E,25.122,101.06,210420,,,A*48
$GPVTG,101.06,T,,M,25.122,N,46.525,K,A*3D
$GPGGA,070330.00,2730.42330,S,15254.81513,E,1,08,1.36,32.4,M,38.5,M,,*78
$GPGSA,A,3,03,22,16,04,26,09,07,01,,,,,2.28,1.36,1.83*0F
$GPGSV,4,1,15,01,12,338,22,03,79,332,39,04,51,199,28,06,04,228,*76
$GPGSV,4,2,15,07,17,294,23,08,00,020,,09,26,231,35,14,03,085,09*77
$GPGSV,4,3,15,16,53,083,40,22,53,013,42,23,37,222,41,26,37,123,34*73
$GPGSV,4,4,15,27,04,049,,31,10,132,,50,47,313,*45
$GPGLL,2730.42330,S,15254.81513,E,070330.00,A,A*7A
$GSENSOR,160,940,126
$GPRMC,070331.00,A,2730.42457,S,15254.82337,E,25.927,100.27,210420,,,A*43
$GPVTG,100.27,T,,M,25.927,N,48.018,K,A*37
$GPGGA,070331.00,2730.42457,S,15254.82337,E,1,08,1.36,33.4,M,38.5,M,,*7D
$GPGSA,A,3,03,22,16,04,26,09,07,01,,,,,2.28,1.36,1.83*0F
$GPGSV,4,1,15,01,12,338,23,03,79,333,40,04,51,199,27,06,04,228,*77
$GPGSV,4,2,15,07,17,294,35,08,00,020,,09,26,231,35,14,03,085,10*78
$GPGSV,4,3,15,16,53,083,41,22,53,013,41,23,37,222,40,26,37,123,31*75
$GPGSV,4,4,15,27,04,049,,31,10,132,,50,47,313,*45
$GPGLL,2730.42457,S,15254.82337,E,070331.00,A,A*7E
$GSENSOR,-38,938,108
$GPRMC,070332.00,A,2730.42571,S,15254.83147,E,25.954,99.17,210420,,,A*77
$GPVTG,99.17,T,,M,25.954,N,48.067,K,A*09
$GPGGA,070332.00,2730.42571,S,15254.83147,E,1,07,1.36,33.8,M,38.5,M,,*7C
$GPGSA,A,3,03,22,16,04,26,07,01,,,,,,2.28,1.36,1.83*06
$GPGSV,4,1,15,01,12,338,25,03,79,333,40,04,52,198,27,06,04,228,*73
$GPGSV,4,2,15,07,17,294,34,08,00,020,,09,26,231,,14,03,085,11*7E
$GPGSV,4,3,15,16,53,083,40,22,53,013,41,23,37,222,36,26,37,123,25*70
$GPGSV,4,4,15,27,04,049,,31,10,132,,50,47,313,*45
$GPGLL,2730.42571,S,15254.83147,E,070332.00,A,A*7C
$GSENSOR,-10,1166,-58
$GPRMC,070333.00,A,2730.42695,S,15254.83946,E,25.650,99.33,210420,,,A*7B
$GPVTG,99.33,T,,M,25.650,N,47.504,K,A*0B
$GPGGA,070333.00,2730.42695,S,15254.83946,E,1,07,1.36,34.2,M,38.5,M,,*70
$GPGSA,A,3,03,22,16,04,26,07,01,,,,,,2.28,1.36,1.83*06
$GPGSV,4,1,15,01,12,338,27,03,79,333,40,04,52,198,26,06,04,228,*70
$GPGSV,4,2,15,07,17,294,30,08,00,020,,09,26,231,17,14,03,085,15*78
$GPGSV,4,3,15,16,53,083,40,22,53,013,42,23,37,222,32,26,37,123,31*72
$GPGSV,4,4,15,27,04,049,21,31,10,132,28,50,47,313,*4C
$GPGLL,2730.42695,S,15254.83946,E,070333.00,A,A*7D
$GSENSOR,-4,1128,10
$GPRMC,070334.00,A,2730.42822,S,15254.84749,E,25.934,100.61,210420,,,A*43
$GPVTG,100.61,T,,M,25.934,N,48.030,K,A*3D
$GPGGA,070334.00,2730.42822,S,15254.84749,E,1,07,1.36,35.0,M,38.5,M,,*70
$GPGSA,A,3,03,22,16,04,26,07,01,,,,,,2.28,1.36,1.83*06
$GPGSV,4,1,15,01,12,338,24,03,79,333,40,04,52,198,26,06,04,229,*72
$GPGSV,4,2,15,07,17,294,33,08,00,020,,09,26,231,21,14,03,085,16*7D
$GPGSV,4,3,15,16,53,083,39,22,53,013,42,23,37,222,34,26,37,123,27*7D
$GPGSV,4,4,15,27,04,049,21,31,10,132,,50,47,313,*46
$GPGLL,2730.42822,S,15254.84749,E,070334.00,A,A*7E
$GSENSOR,-16,984,100
$GPRMC,070335.00,A,2730.42956,S,15254.85529,E,25.153,100.98,210420,,,A*4A
$GPVTG,100.98,T,,M,25.153,N,46.583,K,A*31
$GPGGA,070335.00,2730.42956,S,15254.85529,E,1,08,1.27,35.3,M,38.5,M,,*7A
$GPGSA,A,3,03,22,16,04,26,07,01,31,,,,,1.82,1.27,1.31*0E
$GPGSV,4,1,15,01,12,338,22,03,79,333,38,04,52,198,26,06,04,229,*7B
$GPGSV,4,2,15,07,17,294,29,08,00,020,,09,26,231,23,14,03,085,17*75
$GPGSV,4,3,15,16,53,083,36,22,53,013,37,23,37,222,34,26,37,123,28*7F
$GPGSV,4,4,15,27,04,049,21,31,10,132,32,50,47,313,*47
$GPGLL,2730.42956,S,15254.85529,E,070335.00,A,A*78
$GSENSOR,48,974,110
$GPRMC,070336.00,A,2730.43086,S,15254.86300,E,24.723,100.87,210420,,,A*4C
$GPVTG,100.87,T,,M,24.723,N,45.786,K,A*3B
$GPGGA,070336.00,2730.43086,S,15254.86300,E,1,09,1.27,35.8,M,38.5,M,,*78
$GPGSA,A,3,03,22,16,04,26,09,07,01,31,,,,1.82,1.27,1.31*07
$GPGSV,4,1,15,01,12,338,22,03,79,333,30,04,52,198,31,06,04,229,*75
$GPGSV,4,2,15,07,17,294,33,08,00,020,,09,26,231,25,14,03,085,17*78
$GPGSV,4,3,15,16,53,083,39,22,53,013,34,23,37,222,40,26,37,123,28*70
$GPGSV,4,4,15,27,04,049,21,31,10,132,27,50,47,313,*43
$GPGLL,2730.43086,S,15254.86300,E,070336.00,A,A*70
$GSENSOR,-26,1090,-252
$GPRMC,070337.00,A,2730.43183,S,15254.87035,E,23.218,98.40,210420,,,A*7C
$GPVTG,98.40,T,,M,23.218,N,43.000,K,A*05
$GPGGA,070337.00,2730.43183,S,15254.87035,E,1,08,1.27,36.8,M,38.5,M,,*7B
$GPGSA,A,3,03,22,16,04,26,07,01,31,,,,,1.82,1.27,1.31*0E
$GPGSV,4,1,15,01,12,338,30,03,79,333,33,04,52,198,31,06,04,229,*75
$GPGSV,4,2,15,07,17,294,28,08,00,020,,09,26,231,,14,03,085,16*74
$GPGSV,4,3,15,16,53,083,36,22,53,013,38,23,37,222,40,26,37,123,26*7D
$GPGSV,4,4,15,27,04,049,19,31,10,132,28,50,47,313,*47
$GPGLL,2730.43183,S,15254.87035,E,070337.00,A,A*71
$GSENSOR,-56,948,-72
$GPRMC,070338.00,A,2730.43293,S,15254.87710,E,21.016,99.53,210420,,,A*7C
$GPVTG,99.53,T,,M,21.016,N,38.921,K,A*0E
$GPGGA,070338.00,2730.43293,S,15254.87710,E,1,09,1.27,37.7,M,38.5,M,,*79
$GPGSA,A,3,03,22,16,04,26,09,07,01,31,,,,1.82,1.27,1.31*07
$GPGSV,4,1,15,01,12,338,24,03,79,333,29,04,52,198,31,06,04,229,*7B
$GPGSV,4,2,15,07,17,294,27,08,00,020,,09,26,231,32,14,03,085,17*7B
$GPGSV,4,3,15,16,53,083,36,22,53,013,41,23,37,222,40,26,37,123,32*76
$GPGSV,4,4,15,27,04,049,17,31,10,132,29,50,47,313,*48
$GPGLL,2730.43293,S,15254.87710,E,070338.00,A,A*7C
$GSENSOR,112,1044,-206
$GPRMC,070339.00,A,2730.43371,S,15254.88266,E,16.348,97.43,210420,,,A*78
$GPVTG,97.43,T,,M,16.348,N,30.276,K,A*0C
$GPGGA,070339.00,2730.43371,S,15254.88266,E,1,08,1.27,38.4,M,38.5,M,,*73
$GPGSA,A,3,03,22,16,04,26,07,01,31,,,,,1.82,1.27,1.31*0E
$GPGSV,4,1,15,01,12,338,25,03,79,333,34,04,52,198,25,06,04,229,*73
$GPGSV,4,2,15,07,17,294,25,08,00,020,,09,26,231,,14,03,085,15*7A
$GPGSV,4,3,15,16,53,083,36,22,53,013,39,23,37,222,42,26,37,123,33*7A
$GPGSV,4,4,15,27,04,049,,31,10,132,30,50,47,313,*46
$GPGLL,2730.43371,S,15254.88266,E,070339.00,A,A*7B
$GSENSOR,44,984,-140
$GPRMC,070343.00,A,2730.43313,S,15254.89168,E,4.797,86.89,210420,,,A*4E
$GPVTG,86.89,T,,M,4.797,N,8.885,K,A*02
$GPGGA,070343.00,2730.43313,S,15254.89168,E,1,09,1.27,38.6,M,38.5,M,,*75
$GPGSA,A,3,03,22,16,04,26,09,07,01,31,,,,1.82,1.27,1.31*07
$GPGSV,4,1,15,01,12,338,21,03,79,333,40,04,52,198,33,06,04,229,*73
$GPGSV,4,2,15,07,17,294,29,08,00,020,,09,26,231,33,14,03,085,16*75
$GPGSV,4,3,15,16,53,083,41,22,53,013,40,23,37,222,42,26,37,123,35*72
$GPGSV,4,4,15,27,04,049,21,31,10,132,28,50,47,313,*4C
$GPGLL,2730.43313,S,15254.89168,E,070343.00,A,A*7E
$GSENSOR,-118,922,228
$GPRMC,070344.00,A,2730.43359,S,15254.89391,E,8.237,102.02,210420,,,A*7E
$GPVTG,102.02,T,,M,8.237,N,15.256,K,A*07
$GPGGA,070344.00,2730.43359,S,15254.89391,E,1,08,1.27,39.0,M,38.5,M,,*7E
$GPGSA,A,3,03,22,16,04,26,07,01,31,,,,,1.82,1.27,1.31*0E
$GPGSV,4,1,15,01,12,338,21,03,79,333,40,04,52,198,31,06,04,229,*71
$GPGSV,4,2,15,07,17,294,28,08,00,020,,09,26,231,,14,03,085,15*77
$GPGSV,4,3,15,16,53,083,39,22,53,013,43,23,37,222,39,26,37,123,32*75
$GPGSV,4,4,15,27,04,049,18,31,10,132,27,50,47,313,*49
$GPGLL,2730.43359,S,15254.89391,E,070344.00,A,A*73
$GSENSOR,-270,1014,24
$GPRMC,070345.00,A,2730.43506,S,15254.89644,E,10.843,124.95,210420,,,A*44
$GPVTG,124.95,T,,M,10.843,N,20.081,K,A*33
$GPGGA,070345.00,2730.43506,S,15254.89644,E,1,08,1.27,39.4,M,38.5,M,,*7A
$GPGSA,A,3,03,22,16,04,26,09,07,31,,,,,1.82,1.27,1.31*06
$GPGSV,4,1,15,01,12,338,,03,79,333,44,04,52,198,39,06,04,229,*7E
$GPGSV,4,2,15,07,17,294,20,08,00,020,,09,26,231,33,14,03,085,14*7E
$GPGSV,4,3,15,16,53,083,36,22,53,013,43,23,37,222,39,26,37,123,41*7E
$GPGSV,4,4,15,27,04,049,,31,10,132,26,50,47,313,*41
$GPGLL,2730.43506,S,15254.89644,E,070345.00,A,A*73
$GSENSOR,-258,986,330
$GPRMC,070346.00,A,2730.43760,S,15254.89864,E,12.576,142.50,210420,,,A*49
$GPVTG,142.50,T,,M,12.576,N,23.291,K,A*33
$GPGGA,070346.00,2730.43760,S,15254.89864,E,1,07,1.27,39.8,M,38.5,M,,*74
$GPGSA,A,3,03,22,16,04,26,07,31,,,,,,1.82,1.27,1.31*0F
$GPGSV,4,1,15,01,12,338,22,03,79,333,42,04,52,198,31,06,04,229,*70
$GPGSV,4,2,15,07,17,294,27,08,00,020,,09,26,231,26,14,03,085,13*7A
$GPGSV,4,3,15,16,53,083,36,22,53,013,39,23,37,222,31,26,37,123,40*7A
$GPGSV,4,4,15,27,04,049,,31,10,132,32,50,47,313,*44
$GPGLL,2730.43760,S,15254.89864,E,070346.00,A,A*7E
$GSENSOR,-108,1002,224
$GPRMC,070347.00,A,2730.44138,S,15254.90046,E,15.148,158.32,210420,,,A*45
$GPVTG,158.32,T,,M,15.148,N,28.054,K,A*32
$GPGGA,070347.00,2730.44138,S,15254.90046,E,1,09,1.27,39.9,M,38.5,M,,*76
$GPGSA,A,3,03,22,16,04,26,09,07,01,31,,,,1.82,1.27,1.31*07
$GPGSV,4,1,15,01,12,338,31,03,79,333,41,04,52,198,36,06,04,229,*76
$GPGSV,4,2,15,07,17,294,28,08,00,020,,09,26,231,28,14,03,085,12*7A
$GPGSV,4,3,15,16,53,083,36,22,53,013,41,23,37,222,34,26,37,123,39*7E
$GPGSV,4,4,15,27,04,049,,31,10,132,24,50,47,313,*43
$GPGLL,2730.44138,S,15254.90046,E,070347.00,A,A*73
$GSENSOR,14,1014,242
$GPRMC,070348.00,A,2730.44589,S,15254.90219,E,17.724,164.01,210420,,,A*4D
$GPVTG,164.01,T,,M,17.724,N,32.824,K,A*37
$GPGGA,070348.00,2730.44589,S,15254.90219,E,1,09,1.27,40.8,M,38.5,M,,*70
$GPGSA,A,3,03,22,16,04,26,09,07,01,31,,,,1.82,1.27,1.31*07
$GPGSV,4,1,15,01,12,338,33,03,79,333,44,04,52,198,38,06,04,229,*7F
$GPGSV,4,2,15,07,17,294,34,08,00,020,,09,26,231,35,14,03,085,11*78
$GPGSV,4,3,15,16,53,083,38,22,53,013,40,23,37,222,37,26,37,123,35*7E
$GPGSV,4,4,15,27,04,049,,31,10,132,30,50,47,313,*46
$GPGLL,2730.44589,S,15254.90219,E,070348.00,A,A*7A
$GSENSOR,-12,920,288
$GPRMC,070349.00,A,2730.45114,S,15254.90382,E,20.219,166.20,210420,,,A*40
$GPVTG,166.20,T,,M,20.219,N,37.446,K,A*34
$GPGGA,070349.00,2730.45114,S,15254.90382,E,1,09,1.27,41.5,M,38.5,M,,*7F
$GPGSA,A,3,03,22,16,04,26,09,07,01,31,,,,1.82,1.27,1.31*07
$GPGSV,4,1,15,01,12,338,33,03,79,333,45,04,52,198,38,06,04,229,*7E
$GPGSV,4,2,15,07,17,294,33,08,00,020,,09,26,231,31,14,03,085,10*7A
$GPGSV,4,3,15,16,53,083,40,22,53,013,42,23,37,222,38,26,37,123,33*7A
$GPGSV,4,4,15,27,04,049,22,31,10,132,34,50,47,313,*42
$GPGLL,2730.45114,S,15254.90382,E,070349.00,A,A*79
$GSENSOR,-16,712,268
$GPRMC,070350.00,A,2730.45709,S,15254.90511,E,22.500,169.98,210420,,,A*4F
$GPVTG,169.98,T,,M,22.500,N,41.670,K,A*33
$GPGGA,070350.00,2730.45709,S,15254.90511,E,1,08,1.27,41.7,M,38.4,M,,*73
$GPGSA,A,3,03,22,16,04,26,07,01,31,,,,,1.82,1.27,1.31*0E
$GPGSV,4,1,15,01,12,338,30,03,79,333,44,04,52,198,38,06,04,229,*7C
$GPGSV,4,2,15,07,17,294,29,08,00,020,,09,26,231,33,14,03,085,10*73
$GPGSV,4,3,15,16,53,083,40,22,52,013,44,23,37,222,40,26,37,123,37*76
$GPGSV,4,4,15,27,04,049,20,31,10,132,36,50,47,313,*42
$GPGLL,2730.45709,S,15254.90511,E,070350.00,A,A*77
$GSENSOR,-6,928,224
$GPRMC,070351.00,A,2730.46384,S,15254.90608,E,24.572,172.93,210420,,,A*45
$GPVTG,172.93,T,,M,24.572,N,45.507,K,A*36
$GPGGA,070351.00,2730.46384,S,15254.90608,E,1,09,1.27,42.0,M,38.4,M,,*7E
$GPGSA,A,3,03,22,16,04,26,09,07,01,31,,,,1.82,1.27,1.31*07
$GPGSV,4,1,15,01,12,338,30,03,79,333,44,04,52,198,38,06,04,229,*7C
$GPGSV,4,2,15,07,17,294,33,08,00,020,,09,26,231,30,14,03,085,09*73
$GPGSV,4,3,15,16,53,083,43,22,52,013,44,23,38,222,40,26,37,123,38*75
$GPGSV,4,4,15,27,04,049,19,31,10,132,40,50,47,313,*49
$GPGLL,2730.46384,S,15254.90608,E,070351.00,A,A*7F
$GSENSOR,-124,1040,236
$GPRMC,070352.00,A,2730.47117,S,15254.90670,E,26.474,176.50,210420,,,A*4E
$GPVTG,176.50,T,,M,26.474,N,49.031,K,A*34
$GPGGA,070352.00,2730.47117,S,15254.90670,E,1,08,1.27,42.5,M,38.4,M,,*7F
$GPGSA,A,3,03,22,16,04,26,07,01,31,,,,,1.82,1.27,1.31*0E
$GPGSV,4,1,15,01,12,338,31,03,79,333,43,04,52,198,39,06,04,229,*7B
$GPGSV,4,2,15,07,17,294,33,08,00,020,,09,26,231,,14,03,085,09*70
$GPGSV,4,3,15,16,53,083,42,22,52,013,44,23,38,222,41,26,37,123,41*7B
$GPGSV,4,4,15,27,04,049,23,31,10,132,27,50,47,313,*41
$GPGLL,2730.47117,S,15254.90670,E,070352.00,A,A*7A
$GSENSOR,-142,998,68
$GPRMC,070353.00,A,2730.47875,S,15254.90677,E,27.137,181.00,210420,,,A*4B
$GPVTG,181.00,T,,M,27.137,N,50.258,K,A*3F
$GPGGA,070353.00,2730.47875,S,15254.90677,E,1,09,1.27,42.9,M,38.4,M,,*79
$GPGSA,A,3,03,22,16,04,26,09,07,01,31,,,,1.82,1.27,1.31*07
$GPGSV,4,1,15,01,12,338,32,03,79,333,42,04,52,198,40,06,04,229,*77
$GPGSV,4,2,15,07,17,294,35,08,00,020,,09,26,231,36,14,03,085,11*7A
$GPGSV,4,3,15,16,53,083,42,22,52,013,41,23,38,222,33,26,37,123,38*75
$GPGSV,4,4,15,27,04,049,25,31,10,132,25,50,47,313,*45
$GPGLL,2730.47875,S,15254.90677,E,070353.00,A,A*71
$GSENSOR,-108,1030,66
$GPRMC,070354.00,A,2730.48627,S,15254.90622,E,26.809,184.95,210420,,,A*46
$GPVTG,184.95,T,,M,26.809,N,49.651,K,A*36
$GPGGA,070354.00,2730.48627,S,15254.90622,E,1,08,1.27,43.1,M,38.4,M,,*70
$GPGSA,A,3,03,22,16,04,26,07,01,31,,,,,1.82,1.27,1.31*0E
$GPGSV,4,1,15,01,12,338,31,03,79,333,44,04,52,198,41,06,04,229,*73
$GPGSV,4,2,15,07,17,294,28,08,00,020,,09,26,231,,14,03,085,11*73
$GPGSV,4,3,15,16,53,083,43,22,52,013,41,23,38,222,36,26,37,123,40*7E
$GPGSV,4,4,15,27,04,049,24,31,10,132,23,50,47,313,*42
$GPGLL,2730.48627,S,15254.90622,E,070354.00,A,A*70
$GSENSOR,-52,1114,10
$GPRMC,070355.00,A,2730.49364,S,15254.90524,E,26.402,186.79,210420,,,A*46
$GPVTG,186.79,T,,M,26.402,N,48.896,K,A*35
$GPGGA,070355.00,2730.49364,S,15254.90524,E,1,09,1.48,43.2,M,38.4,M,,*7C
$GPGSA,A,3,03,22,16,04,26,09,07,01,31,,,,2.41,1.48,1.91*08
$GPGSV,4,1,15,01,12,338,25,03,79,333,44,04,52,198,41,06,04,229,*76
$GPGSV,4,2,15,07,17,294,27,08,00,020,,09,26,231,30,14,03,085,12*7C
$GPGSV,4,3,15,16,53,083,43,22,52,013,41,23,38,222,38,26,37,123,35*72
$GPGSV,4,4,15,27,04,050,22,31,10,132,22,50,47,313,*4D
$GPGLL,2730.49364,S,15254.90524,E,070355.00,A,A*77
$GSENSOR,38,1034,34
$GPRMC,070356.00,A,2730.50097,S,15254.90429,E,26.403,186.86,210420,,,A*4F
$GPVTG,186.86,T,,M,26.403,N,48.898,K,A*3A
$GPGGA,070356.00,2730.50097,S,15254.90429,E,1,08,1.22,43.8,M,38.4,M,,*73
$GPGSA,A,3,03,22,16,04,26,07,01,31,,,,,1.78,1.22,1.30*0F
$GPGSV,4,1,15,01,12,338,26,03,79,333,45,04,52,198,41,06,04,229,*74
$GPGSV,4,2,15,07,17,294,26,08,00,020,,09,26,231,26,14,03,085,14*7C
$GPGSV,4,3,15,16,53,083,43,22,52,013,42,23,38,222,40,26,37,123,38*73
$GPGSV,4,4,15,27,04,050,20,31,10,132,30,50,47,313,*4C
$GPGLL,2730.50097,S,15254.90429,E,070356.00,A,A*7F
$GSENSOR,100,1046,108
$GPRMC,070357.00,A,2730.50834,S,15254.90335,E,26.564,186.79,210420,,,A*45
$GPVTG,186.79,T,,M,26.564,N,49.197,K,A*3D
$GPGGA,070357.00,2730.50834,S,15254.90335,E,1,08,1.22,44.6,M,38.4,M,,*70
$GPGSA,A,3,03,22,16,04,26,07,01,31,,,,,1.78,1.22,1.30*0F
$GPGSV,4,1,15,01,12,338,30,03,79,333,43,04,52,198,40,06,04,229,*74
$GPGSV,4,2,15,07,17,294,31,08,00,020,,09,26,231,26,14,03,085,14*7A
$GPGSV,4,3,15,16,53,083,43,22,52,013,43,23,38,222,38,26,37,123,38*7D
$GPGSV,4,4,15,27,04,050,18,31,10,132,24,50,47,313,*42
$GPGLL,2730.50834,S,15254.90335,E,070357.00,A,A*75
$GSENSOR,70,984,114
$GPRMC,070358.00,A,2730.51573,S,15254.90238,E,26.562,186.45,210420,,,A*40
$GPVTG,186.45,T,,M,26.562,N,49.193,K,A*30
$GPGGA,070358.00,2730.51573,S,15254.90238,E,1,09,1.22,45.5,M,38.4,M,,*7F
$GPGSA,A,3,03,22,16,04,26,09,07,01,31,,,,1.78,1.22,1.30*06
$GPGSV,4,1,15,01,12,338,28,03,79,333,43,04,52,198,40,06,04,229,*7D
$GPGSV,4,2,15,07,17,294,25,08,00,020,,09,26,231,27,14,03,085,14*7E
$GPGSV,4,3,15,16,53,083,43,22,52,013,43,23,38,222,38,26,37,123,38*7D
$GPGSV,4,4,15,27,04,050,18,31,10,132,30,50,47,313,*47
$GPGLL,2730.51573,S,15254.90238,E,070358.00,A,A*79
$GSENSOR,176,1144,34
$GPRMC,070359.00,A,2730.52318,S,15254.90159,E,26.602,185.47,210420,,,A*49
$GPVTG,185.47,T,,M,26.602,N,49.268,K,A*33
$GPGGA,070359.00,2730.52318,S,15254.90159,E,1,08,1.22,46.7,M,38.4,M,,*72
$GPGSA,A,3,03,22,16,04,26,07,01,31,,,,,1.78,1.22,1.30*0F
$GPGSV,4,1,15,01,12,338,19,03,79,333,44,04,52,198,42,06,04,229,*7A
$GPGSV,4,2,15,07,17,294,26,08,00,020,,09,26,231,,14,03,085,16*7A
$GPGSV,4,3,15,16,53,083,44,22,52,013,45,23,38,222,32,26,37,123,40*79
$GPGSV,4,4,15,27,04,050,20,31,10,132,34,50,47,313,*48
$GPGLL,2730.52318,S,15254.90159,E,070359.00,A,A*74
$GSENSOR,88,868,2
$GPRMC,070400.00,A,2730.53066,S,15254.90094,E,26.847,184.18,210420,,,A*4D
$GPVTG,184.18,T,,M,26.847,N,49.720,K,A*3E
$GPGGA,070400.00,2730.53066,S,15254.90094,E,1,09,1.22,47.9,M,38.4,M,,*7C
$GPGSA,A,3,03,22,16,04,26,09,07,01,31,,,,1.78,1.22,1.30*06
$GPGSV,4,1,15,01,12,338,19,03,79,333,45,04,52,198,43,06,04,229,*7A
$GPGSV,4,2,15,07,17,294,25,08,00,020,,09,26,231,37,14,03,085,19*72
$GPGSV,4,3,15,16,53,083,43,22,52,013,44,23,38,222,35,26,37,123,40*78
$GPGSV,4,4,15,27,04,050,25,31,10,132,29,50,47,313,*41
$GPGLL,2730.53066,S,15254.90094,E,070400.00,A,A*74
$GSENSOR,152,990,40
$GPRMC,070401.00,A,2730.53818,S,15254.90057,E,27.124,180.86,210420,,,A*4C
$GPVTG,180.86,T,,M,27.124,N,50.233,K,A*3F
$GPGGA,070401.00,2730.53818,S,15254.90057,E,1,08,1.22,48.5,M,38.4,M,,*71
$GPGSA,A,3,03,22,16,04,26,07,01,31,,,,,1.78,1.22,1.30*0F
$GPGSV,4,1,15,01,12,338,20,03,79,333,44,04,52,198,42,06,04,229,*70
$GPGSV,4,2,15,07,17,294,31,08,00,020,,09,26,231,,14,03,085,20*79
$GPGSV,4,3,15,16,53,083,42,22,52,013,41,23,38,222,31,26,37,123,39*76
$GPGSV,4,4,15,27,04,050,25,31,10,132,36,50,47,313,*4F
$GPGLL,2730.53818,S,15254.90057,E,070401.00,A,A*7B
$GSENSOR,234,1008,118
$GPRMC,070402.00,A,2730.54573,S,15254.90095,E,27.402,175.04,210420,,,A*47
$GPVTG,175.04,T,,M,27.402,N,50.749,K,A*36
$GPGGA,070402.00,2730.54573,S,15254.90095,E,1,08,1.22,48.9,M,38.4,M,,*77
$GPGSA,A,3,03,22,16,04,26,07,01,31,,,,,1.78,1.22,1.30*0F
$GPGSV,4,1,15,01,12,338,19,03,79,333,44,04,52,198,42,06,04,229,*7A
$GPGSV,4,2,15,07,17,294,34,08,00,020,,09,26,231,23,14,03,085,18*76
$GPGSV,4,3,15,16,53,083,42,22,52,013,45,23,38,222,35,26,37,123,41*79
$GPGSV,4,4,15,27,04,050,32,31,10,132,32,50,47,313,*4D
$GPGLL,2730.54573,S,15254.90095,E,070402.00,A,A*71
$GSENSOR,160,994,-62
$GPRMC,070403.00,A,2730.55317,S,15254.90231,E,27.006,168.61,210420,,,A*40
$GPVTG,168.61,T,,M,27.006,N,50.015,K,A*37
$GPGGA,070403.00,2730.55317,S,15254.90231,E,1,09,1.22,49.6,M,38.4,M,,*70
$GPGSA,A,3,03,22,16,04,26,09,07,01,31,,,,1.78,1.22,1.30*06
$GPGSV,4,1,15,01,12,338,20,03,79,333,42,04,52,198,40,06,04,229,*74
$GPGSV,4,2,15,07,17,294,32,08,00,020,,09,26,231,31,14,03,085,16*7D
$GPGSV,4,3,15,16,53,083,38,22,52,013,45,23,38,222,32,26,37,123,39*7C
$GPGSV,4,4,15,27,04,050,26,31,10,132,26,50,47,313,*4D
$GPGLL,2730.55317,S,15254.90231,E,070403.00,A,A*79
$GSENSOR,258,942,276
$GPRMC,070404.00,A,2730.56030,S,15254.90471,E,26.695,160.86,210420,,,A*4C
$GPVTG,160.86,T,,M,26.695,N,49.440,K,A*37
$GPGGA,070404.00,2730.56030,S,15254.90471,E,1,08,1.22,50.2,M,38.4,M,,*7D
$GPGSA,A,3,03,22,16,04,26,07,01,31,,,,,1.78,1.22,1.30*0F
$GPGSV,4,1,15,01,12,338,22,03,79,333,41,04,52,198,39,06,04,229,*7B
$GPGSV,4,2,15,07,17,294,30,08,00,020,,09,26,231,,14,03,085,19*72
$GPGSV,4,3,15,16,53,083,38,22,52,013,41,23,38,222,27,26,37,123,29*7D
$GPGSV,4,4,15,27,04,050,24,31,10,132,26,50,47,313,*4F
$GPGLL,2730.56030,S,15254.90471,E,070404.00,A,A*79
$GSENSOR,210,966,130
$GPRMC,070405.00,A,2730.56700,S,15254.90812,E,26.466,153.30,210420,,,A*43
$GPVTG,153.30,T,,M,26.466,N,49.014,K,A*31
$GPGGA,070405.00,2730.56700,S,15254.90812,E,1,08,1.22,50.7,M,38.4,M,,*74
$GPGSA,A,3,03,22,16,04,26,07,01,31,,,,,1.78,1.22,1.30*0F
$GPGSV,4,1,15,01,12,338,31,03,79,333,40,04,52,198,36,06,04,229,*77
$GPGSV,4,2,15,07,17,294,29,08,00,020,,09,26,231,28,14,03,085,18*71
$GPGSV,4,3,15,16,53,083,38,22,52,013,35,23,38,222,36,26,37,123,39*7F
$GPGSV,4,4,15,27,04,050,21,31,10,132,38,50,47,313,*45
$GPGLL,2730.56700,S,15254.90812,E,070405.00,A,A*75
$GSENSOR,238,1034,172
$GPRMC,070406.00,A,2730.57325,S,15254.91256,E,26.591,145.84,210420,,,A*48
$GPVTG,145.84,T,,M,26.591,N,49.247,K,A*34
$GPGGA,070406.00,2730.57325,S,15254.91256,E,1,09,1.22,51.0,M,38.4,M,,*79
$GPGSA,A,3,03,22,16,04,26,09,07,01,31,,,,1.78,1.22,1.30*06
$GPGSV,4,1,15,01,12,338,32,03,79,333,37,04,52,198,32,06,04,229,*70
$GPGSV,4,2,15,07,17,294,27,08,00,020,,09,26,231,33,14,03,085,16*7B
$GPGSV,4,3,15,16,53,083,39,22,52,013,37,23,38,222,37,26,37,123,39*7D
$GPGSV,4,4,15,27,04,050,20,31,10,132,39,50,47,313,*45
$GPGLL,2730.57325,S,15254.91256,E,070406.00,A,A*7F
$GSENSOR,158,1020,122
$GPRMC,070407.00,A,2730.57894,S,15254.91788,E,26.493,138.77,210420,,,A*4B
$GPVTG,138.77,T,,M,26.493,N,49.065,K,A*33
$GPGGA,070407.00,2730.57894,S,15254.91788,E,1,09,1.22,51.5,M,38.4,M,,*7A
$GPGSA,A,3,03,22,16,04,26,09,07,01,31,,,,1.78,1.22,1.30*06
$GPGSV,4,1,15,01,12,338,27,03,79,333,40,04,52,198,32,06,04,229,*74
$GPGSV,4,2,15,07,17,294,25,08,00,020,,09,26,231,32,14,03,085,13*7D
$GPGSV,4,3,15,16,53,083,39,22,52,013,39,23,38,222,41,26,37,123,41*7D
$GPGSV,4,4,15,27,04,050,,31,10,132,36,50,47,313,*48
$GPGLL,2730.57894,S,15254.91788,E,070407.00,A,A*79
$GSENSOR,144,1080,194
$GPRMC,070408.00,A,2730.58388,S,15254.92366,E,25.779,131.61,210420,,,A*40
$GPVTG,131.61,T,,M,25.779,N,47.743,K,A*34
$GPGGA,070408.00,2730.58388,S,15254.92366,E,1,08,1.22,51.8,M,38.4,M,,*77
$GPGSA,A,3,03,22,16,04,26,07,01,31,,,,,1.78,1.22,1.30*0F
$GPGSV,4,1,15,01,12,338,25,03,79,333,41,04,52,198,32,06,04,229,*77
$GPGSV,4,2,15,07,17,294,25,08,00,020,,09,26,231,,14,03,085,13*7C
$GPGSV,4,3,15,16,53,083,40,22,52,013,43,23,38,222,38,26,37,123,39*7F
$GPGSV,4,4,15,27,04,050,,31,10,132,29,50,47,313,*46
$GPGLL,2730.58388,S,15254.92366,E,070408.00,A,A*78
$GSENSOR,96,976,130
$GPRMC,070409.00,A,2730.58803,S,15254.93029,E,25.849,124.02,210420,,,A*4D
$GPVTG,124.02,T,,M,25.849,N,47.873,K,A*35
$GPGGA,070409.00,2730.58803,S,15254.93029,E,1,09,1.22,52.5,M,38.4,M,,*78
$GPGSA,A,3,03,22,16,04,26,09,07,01,31,,,,1.78,1.22,1.30*06
$GPGSV,4,1,15,01,12,338,30,03,79,333,41,04,52,198,38,06,04,229,*79
$GPGSV,4,2,15,07,17,294,25,08,00,020,,09,26,231,34,14,03,085,14*7C
$GPGSV,4,3,15,16,53,083,41,22,52,013,43,23,38,222,40,26,37,123,40*7F
$GPGSV,4,4,15,27,04,050,,31,10,132,18,50,47,313,*44
$GPGLL,2730.58803,S,15254.93029,E,070409.00,A,A*78
$GSENSOR,256,940,0
$GPRMC,070410.00,A,2730.59145,S,15254.93749,E,26.396,116.31,210420,,,A*45
$GPVTG,116.31,T,,M,26.396,N,48.884,K,A*39
$GPGGA,070410.00,2730.59145,S,15254.93749,E,1,08,1.22,52.5,M,38.4,M,,*7A
$GPGSA,A,3,03,22,16,04,26,07,01,31,,,,,1.78,1.22,1.30*0F
$GPGSV,4,1,15,01,12,338,22,03,79,333,41,04,52,198,38,06,04,229,*7A
$GPGSV,4,2,15,07,17,294,34,08,00,020,,09,26,231,29,14,03,085,15*71
$GPGSV,4,3,15,16,53,083,39,22,52,013,43,23,38,222,36,26,37,123,37*71
$GPGSV,4,4,15,27,04,050,,31,10,132,28,50,47,313,*47
$GPGLL,2730.59145,S,15254.93749,E,070410.00,A,A*7B
$GSENSOR,202,968,-12
$GPRMC,070411.00,A,2730.59411,S,15254.94515,E,26.301,109.41,210420,,,A*4B
$GPVTG,109.41,T,,M,26.301,N,48.709,K,A*34
$GPGGA,070411.00,2730.59411,S,15254.94515,E,1,09,1.22,52.6,M,38.4,M,,*71
$GPGSA,A,3,03,22,16,04,26,09,07,01,31,,,,1.78,1.22,1.30*06
$GPGSV,4,1,15,01,12,338,25,03,79,333,40,04,52,198,32,06,04,229,*76
$GPGSV,4,2,15,07,17,294,35,08,00,020,,09,26,231,28,14,03,085,16*72
$GPGSV,4,3,15,16,53,083,38,22,52,013,41,23,38,222,40,26,37,123,34*70
$GPGSV,4,4,15,27,04,050,,31,10,132,26,50,47,313,*49
$GPGLL,2730.59411,S,15254.94515,E,070411.00,A,A*72
$GSENSOR,236,1014,52
$GPRMC,070412.00,A,2730.59582,S,15254.95306,E,26.084,102.02,210420,,,A*44
$GPVTG,102.02,T,,M,26.084,N,48.308,K,A*33
$GPGGA,070412.00,2730.59582,S,15254.95306,E,1,08,1.22,52.1,M,38.4,M,,*7A
$GPGSA,A,3,03,22,16,04,26,07,01,31,,,,,1.78,1.22,1.30*0F
$GPGSV,4,1,15,01,12,338,26,03,79,333,41,04,52,198,26,06,04,229,*71
$GPGSV,4,2,15,07,17,294,37,08,00,020,,09,26,231,30,14,03,085,18*77
$GPGSV,4,3,15,16,53,083,41,22,52,013,43,23,38,222,40,26,37,123,38*70
$GPGSV,4,4,15,27,04,050,,31,10,132,26,50,47,313,*49
$GPGLL,2730.59582,S,15254.95306,E,070412.00,A,A*7F
$GSENSOR,126,966,-46
$GPRMC,070413.00,A,2730.59669,S,15254.96109,E,25.833,95.63,210420,,,A*72
$GPVTG,95.63,T,,M,25.833,N,47.843,K,A*07
$GPGGA,070413.00,2730.59669,S,15254.96109,E,1,08,1.22,51.6,M,38.4,M,,*77
$GPGSA,A,3,03,22,16,04,26,07,01,31,,,,,1.78,1.22,1.30*0F
$GPGSV,4,1,15,01,12,338,23,03,79,333,41,04,52,198,27,06,04,229,*75
$GPGSV,4,2,15,07,17,294,30,08,00,020,,09,26,231,25,14,03,085,19*75
$GPGSV,4,3,15,16,53,083,41,22,52,013,38,23,38,222,43,26,37,123,32*75
$GPGSV,4,4,15,27,04,050,,31,10,132,25,50,47,313,*4A
$GPGLL,2730.59669,S,15254.96109,E,070413.00,A,A*76
$GSENSOR,6,1012,-70
$GPRMC,070414.00,A,2730.59708,S,15254.96904,E,25.565,93.34,210420,,,A*7C
$GPVTG,93.34,T,,M,25.565,N,47.346,K,A*03
$GPGGA,070414.00,2730.59708,S,15254.96904,E,1,09,1.22,50.7,M,38.4,M,,*72
$GPGSA,A,3,03,22,16,04,26,09,07,01,31,,,,1.78,1.22,1.30*06
$GPGSV,4,1,15,01,12,338,20,03,79,333,42,04,52,198,33,06,04,229,*70
$GPGSV,4,2,15,07,17,294,31,08,00,020,,09,26,231,27,14,03,085,19*76
$GPGSV,4,3,15,16,53,083,40,22,52,013,42,23,38,222,43,26,37,123,36*7D
$GPGSV,4,4,15,27,04,050,,31,10,132,23,50,47,313,*4C
$GPGLL,2730.59708,S,15254.96904,E,070414.00,A,A*72
$GSENSOR,-46,952,-24
$GPRMC,070415.00,A,2730.59765,S,15254.97682,E,25.034,95.59,210420,,,A*7A
$GPVTG,95.59,T,,M,25.034,N,46.364,K,A*0E
$GPGGA,070415.00,2730.59765,S,15254.97682,E,1,07,1.30,50.0,M,38.4,M,,*72
$GPGSA,A,3,03,22,16,04,26,07,01,,,,,,2.25,1.30,1.84*0A
$GPGSV,4,1,15,01,12,338,16,03,79,333,40,04,52,198,29,06,04,229,*7C
$GPGSV,4,2,15,07,17,294,26,08,00,020,,09,26,231,29,14,03,085,22*76
$GPGSV,4,3,15,16,53,083,42,22,52,013,42,23,38,222,42,26,37,123,32*7A
$GPGSV,4,4,15,27,04,050,,31,10,132,32,50,47,313,*4C
$GPGLL,2730.59765,S,15254.97682,E,070415.00,A,A*78
$GSENSOR,-252,1008,130
$GPRMC,070416.00,A,2730.59878,S,15254.98458,E,25.220,100.87,210420,,,A*49
$GPVTG,100.87,T,,M,25.220,N,46.708,K,A*39
$GPGGA,070416.00,2730.59878,S,15254.98458,E,1,07,1.30,49.0,M,38.4,M,,*70
$GPGSA,A,3,03,22,16,04,26,09,07,,,,,,2.25,1.30,1.84*02
$GPGSV,4,1,15,01,12,338,,03,79,333,39,04,52,198,32,06,04,229,*7F
$GPGSV,4,2,15,07,17,294,31,08,00,020,,09,26,231,28,14,03,085,20*73
$GPGSV,4,3,15,16,53,083,41,22,52,013,40,23,38,222,33,26,37,123,38*77
$GPGSV,4,4,15,27,04,050,,31,10,132,26,50,47,313,*49
$GPGLL,2730.59878,S,15254.98458,E,070416.00,A,A*72
$GSENSOR,-162,1042,-38
$GPRMC,070417.00,A,2730.60080,S,15254.99236,E,25.783,108.20,210420,,,A*4B
$GPVTG,108.20,T,,M,25.783,N,47.750,K,A*3C
$GPGGA,070417.00,2730.60080,S,15254.99236,E,1,07,1.22,48.0,M,38.4,M,,*79
$GPGSA,A,3,03,22,16,04,26,07,31,,,,,,1.78,1.22,1.30*0E
$GPGSV,4,1,15,01,12,338,,03,79,333,38,04,52,198,26,06,04,229,*7B
$GPGSV,4,2,15,07,17,294,34,08,00,020,,09,26,231,27,14,03,085,21*78
$GPGSV,4,3,15,16,53,083,39,22,52,013,43,23,38,222,40,26,37,123,39*7E
$GPGSV,4,4,15,27,04,050,,31,10,132,25,50,47,313,*4A
$GPGLL,2730.60080,S,15254.99236,E,070417.00,A,A*79
$GSENSOR,-84,1050,-26
$GPRMC,070418.00,A,2730.60357,S,15254.99992,E,26.426,113.57,210420,,,A*4D
$GPVTG,113.57,T,,M,26.426,N,48.941,K,A*38
$GPGGA,070418.00,2730.60357,S,15254.99992,E,1,08,1.22,46.9,M,38.4,M,,*72
$GPGSA,A,3,03,22,16,04,26,09,07,31,,,,,1.78,1.22,1.30*07
$GPGSV,4,1,15,01,12,338,,03,79,334,35,04,52,198,31,06,04,229,*77
$GPGSV,4,2,15,07,17,294,36,08,00,020,,09,26,231,33,14,03,085,19*74
$GPGSV,4,3,15,16,53,083,35,22,52,013,46,23,38,222,41,26,37,123,41*79
$GPGSV,4,4,15,27,04,050,,31,10,132,26,50,47,313,*49
$GPGLL,2730.60357,S,15254.99992,E,070418.00,A,A*7A
$GSENSOR,-84,932,54
$GPRMC,070419.00,A,2730.60700,S,15255.00727,E,26.645,119.34,210420,,,A*43
$GPVTG,119.34,T,,M,26.645,N,49.346,K,A*3C
$GPGGA,070419.00,2730.60700,S,15255.00727,E,1,08,1.22,45.5,M,38.4,M,,*7B
$GPGSA,A,3,03,22,16,04,26,09,07,31,,,,,1.78,1.22,1.30*07
$GPGSV,4,1,15,01,12,338,,03,79,334,24,04,52,198,31,06,04,229,*77
$GPGSV,4,2,15,07,17,294,33,08,00,020,,09,26,231,32,14,03,085,17*7E
$GPGSV,4,3,15,16,53,083,31,22,52,013,34,23,38,222,39,26,37,123,41*77
$GPGSV,4,4,15,27,04,050,,31,10,132,25,50,47,313,*4A
$GPGLL,2730.60700,S,15255.00727,E,070419.00,A,A*7C
$GSENSOR,50,1042,-92
$GPRMC,070420.00,A,2730.61078,S,15255.01441,E,26.535,121.19,210420,,,A*42
$GPVTG,121.19,T,,M,26.535,N,49.143,K,A*3B
$GPGGA,070420.00,2730.61078,S,15255.01441,E,1,07,1.22,44.0,M,38.4,M,,*71
$GPGSA,A,3,03,22,16,04,26,07,31,,,,,,1.78,1.22,1.30*0E
$GPGSV,4,1,15,01,12,338,,03,79,334,31,04,52,198,35,06,04,229,*77
$GPGSV,4,2,15,07,17,294,29,08,00,020,,09,26,231,,14,03,085,15*76
$GPGSV,4,3,15,16,53,083,37,22,52,013,34,23,38,222,39,26,37,123,42*72
$GPGSV,4,4,15,27,04,050,,31,10,132,32,50,47,313,*4C
$GPGLL,2730.61078,S,15255.01441,E,070420.00,A,A*7D
$GSENSOR,58,902,-34
$GPRMC,070421.00,A,2730.61466,S,15255.02140,E,26.365,121.97,210420,,,A*4A
$GPVTG,121.97,T,,M,26.365,N,48.828,K,A*3B
$GPGGA,070421.00,2730.61466,S,15255.02140,E,1,08,1.22,42.9,M,38.4,M,,*7C
$GPGSA,A,3,03,22,16,04,26,09,07,31,,,,,1.78,1.22,1.30*07
$GPGSV,4,1,15,01,12,338,,03,79,334,24,04,52,198,34,06,04,229,*72
$GPGSV,4,2,15,07,17,294,35,08,00,020,,09,26,231,31,14,03,085,16*7A
$GPGSV,4,3,15,16,53,083,41,22,52,013,43,23,38,222,37,26,37,123,42*7D
$GPGSV,4,4,15,27,04,050,,31,10,132,34,50,47,313,*4A
$GPGLL,2730.61466,S,15255.02140,E,070421.00,A,A*70
$GSENSOR,-26,968,-252
$GPRMC,070422.00,A,2730.61858,S,15255.02806,E,25.694,122.22,210420,,,A*46
$GPVTG,122.22,T,,M,25.694,N,47.585,K,A*3B
$GPGGA,070422.00,2730.61858,S,15255.02806,E,1,07,1.22,41.6,M,38.4,M,,*76
$GPGSA,A,3,03,22,16,04,26,07,31,,,,,,1.78,1.22,1.30*0E
$GPGSV,4,1,15,01,12,338,,03,79,334,30,04,52,198,38,06,04,229,*7B
$GPGSV,4,2,15,07,17,294,35,08,00,020,,09,26,231,27,14,03,085,16*7D
$GPGSV,4,3,15,16,53,083,40,22,52,013,44,23,38,222,39,26,37,123,42*75
$GPGSV,4,4,15,27,04,050,,31,10,132,25,50,47,313,*4A
$GPGLL,2730.61858,S,15255.02806,E,070422.00,A,A*79
$GSENSOR,34,984,-122
$GPRMC,070423.00,A,2730.62236,S,15255.03472,E,25.262,122.55,210420,,,A*45
$GPVTG,122.55,T,,M,25.262,N,46.786,K,A*36
$GPGGA,070423.00,2730.62236,S,15255.03472,E,1,08,1.22,40.7,M,38.4,M,,*77
$GPGSA,A,3,03,22,16,04,26,09,07,31,,,,,1.78,1.22,1.30*07
$GPGSV,4,1,15,01,12,338,,03,79,334,29,04,52,198,36,06,04,229,*7D
$GPGSV,4,2,15,07,17,294,33,08,00,021,,09,26,231,28,14,03,085,14*77
$GPGSV,4,3,15,16,53,083,41,22,52,013,42,23,38,222,35,26,37,123,42*7E
$GPGSV,4,4,15,27,04,050,,31,10,132,32,50,47,313,*4C
$GPGLL,2730.62236,S,15255.03472,E,070423.00,A,A*77
$GSENSOR,0,1130,-50
$GPRMC,070424.00,A,2730.62607,S,15255.04122,E,24.658,122.29,210420,,,A*44
$GPVTG,122.29,T,,M,24.658,N,45.667,K,A*3C
$GPGGA,070424.00,2730.62607,S,15255.04122,E,1,06,1.22,39.8,M,38.4,M,,*7E
$GPGSA,A,3,22,16,04,26,07,31,,,,,,,1.86,1.22,1.41*0A
$GPGSV,4,1,15,01,12,338,20,03,79,334,27,04,52,198,38,06,04,229,*7F
$GPGSV,4,2,15,07,17,294,32,08,00,021,,09,26,231,22,14,03,085,15*7D
$GPGSV,4,3,15,16,53,083,40,22,52,013,44,23,38,222,30,26,37,123,42*7C
$GPGSV,4,4,15,27,04,050,,31,10,132,36,50,47,313,*48
$GPGLL,2730.62607,S,15255.04122,E,070424.00,A,A*71
$GSENSOR,142,970,84
$GPRMC,070425.00,A,2730.62945,S,15255.04772,E,23.951,119.44,210420,,,A*4D
$GPVTG,119.44,T,,M,23.951,N,44.356,K,A*38
$GPGGA,070425.00,2730.62945,S,15255.04772,E,1,08,1.22,39.0,M,38.4,M,,*73
$GPGSA,A,3,03,22,16,04,26,09,07,31,,,,,1.78,1.22,1.30*07
$GPGSV,4,1,15,01,12,338,18,03,79,334,36,04,52,198,34,06,04,229,*78
$GPGSV,4,2,15,07,17,294,34,08,00,021,,09,26,231,30,14,03,085,15*78
$GPGSV,4,3,15,16,53,083,42,22,52,013,44,23,38,222,33,26,37,123,42*7D
$GPGSV,4,4,15,27,04,050,,31,10,132,38,50,47,313,*46
$GPGLL,2730.62945,S,15255.04772,E,070425.00,A,A*7A
$GSENSOR,184,880,-52
$GPRMC,070426.00,A,2730.63224,S,15255.05441,E,23.762,113.16,210420,,,A*42
$GPVTG,113.16,T,,M,23.762,N,44.006,K,A*3D
$GPGGA,070426.00,2730.63224,S,15255.05441,E,1,07,1.22,38.3,M,38.4,M,,*72
$GPGSA,A,3,03,22,16,04,26,07,31,,,,,,1.78,1.22,1.30*0E
$GPGSV,4,1,15,01,12,338,,03,79,334,38,04,52,198,27,06,04,229,*7D
$GPGSV,4,2,15,07,17,294,36,08,00,021,,09,26,231,25,14,03,085,16*7D
$GPGSV,4,3,15,16,53,083,39,22,52,013,44,23,38,222,38,26,37,123,38*77
$GPGSV,4,4,15,27,04,050,,31,10,132,32,50,47,313,*4C
$GPGLL,2730.63224,S,15255.05441,E,070426.00,A,A*76
$GSENSOR,302,1034,-110
$GPRMC,070427.00,A,2730.63408,S,15255.06138,E,22.933,104.08,210420,,,A*41
$GPVTG,104.08,T,,M,22.933,N,42.471,K,A*3D
$GPGGA,070427.00,2730.63408,S,15255.06138,E,1,08,1.22,37.7,M,38.4,M,,*77
$GPGSA,A,3,03,22,16,04,26,09,07,31,,,,,1.78,1.22,1.30*07
$GPGSV,4,1,15,01,12,338,,03,79,334,41,04,52,198,28,06,04,229,*7C
$GPGSV,4,2,15,07,17,294,35,08,00,021,,09,26,231,34,14,03,085,15*7D
$GPGSV,4,3,15,16,53,083,40,22,52,013,38,23,38,222,32,26,37,123,37*77
$GPGSV,4,4,15,27,04,050,,31,10,132,24,50,47,313,*4B
$GPGLL,2730.63408,S,15255.06138,E,070427.00,A,A*77
$GSENSOR,252,1026,-14
$GPRMC,070428.00,A,2730.63460,S,15255.06810,E,21.012,91.25,210420,,,A*78
$GPVTG,91.25,T,,M,21.012,N,38.914,K,A*05
$GPGGA,070428.00,2730.63460,S,15255.06810,E,1,06,1.30,37.6,M,38.4,M,,*79
$GPGSA,A,3,03,22,16,04,26,07,,,,,,,2.25,1.30,1.84*0B
$GPGSV,4,1,15,01,12,338,,03,79,334,39,04,52,198,37,06,04,229,*7D
$GPGSV,4,2,15,07,17,294,35,08,00,021,,09,26,231,23,14,03,085,14*7A
$GPGSV,4,3,15,16,53,083,39,22,52,013,28,23,38,222,42,26,37,123,33*7B
$GPGSV,4,4,15,27,04,050,19,31,10,132,,50,47,313,*45
$GPGLL,2730.63460,S,15255.06810,E,070428.00,A,A*75
$GSENSOR,38,1040,46
$GPRMC,070429.00,A,2730.63421,S,15255.07414,E,18.616,83.48,210420,,,A*75
$GPVTG,83.48,T,,M,18.616,N,34.477,K,A*01
$GPGGA,070429.00,2730.63421,S,15255.07414,E,1,07,1.30,37.5,M,38.4,M,,*76
$GPGSA,A,3,03,22,16,04,26,09,07,,,,,,2.25,1.30,1.84*02
$GPGSV,4,1,15,01,12,338,,03,79,334,35,04,52,198,39,06,04,229,*7F
$GPGSV,4,2,15,07,17,294,32,08,00,021,,09,26,231,35,14,02,084,15*7B
$GPGSV,4,3,15,16,53,083,38,22,52,013,34,23,38,222,43,26,37,123,35*70
$GPGSV,4,4,15,27,04,050,16,31,10,132,,50,47,313,*4A
$GPGLL,2730.63421,S,15255.07414,E,070429.00,A,A*78
$GSENSOR,-116,990,-26
$GPRMC,070430.00,A,2730.63413,S,15255.07923,E,15.519,90.67,210420,,,A*7B
$GPVTG,90.67,T,,M,15.519,N,28.741,K,A*04
$GPGGA,070430.00,2730.63413,S,15255.07923,E,1,06,1.30,37.3,M,38.4,M,,*71
$GPGSA,A,3,03,22,16,04,26,07,,,,,,,2.25,1.30,1.84*0B
$GPGSV,4,1,15,01,12,338,,03,79,334,40,04,52,198,24,06,04,229,*71
$GPGSV,4,2,15,07,17,294,25,08,00,021,,09,26,231,31,14,02,084,16*7A
$GPGSV,4,3,15,16,53,083,36,22,52,013,42,23,38,222,39,26,37,123,36*71
$GPGSV,4,4,15,27,04,050,,31,10,132,,50,47,313,*4D
$GPGLL,2730.63413,S,15255.07923,E,070430.00,A,A*78
$GSENSOR,-304,890,112
$GPRMC,070431.00,A,2730.63526,S,15255.08379,E,15.265,110.12,210420,,,A*40
$GPVTG,110.12,T,,M,15.265,N,28.270,K,A*34
$GPGGA,070431.00,2730.63526,S,15255.08379,E,1,06,1.49,37.0,M,38.4,M,,*70
$GPGSA,A,3,03,22,16,04,26,07,,,,,,,3.42,1.49,3.07*0C
$GPGSV,4,1,15,01,12,338,,03,79,334,39,04,52,198,34,06,04,229,*7E
$GPGSV,4,2,15,07,17,294,23,08,00,021,,09,26,231,27,14,02,084,16*7B
$GPGSV,4,3,15,16,54,084,38,22,52,013,41,23,38,222,40,26,37,123,32*76
$GPGSV,4,4,15,27,04,050,,31,10,132,,50,47,313,*4D
$GPGLL,2730.63526,S,15255.08379,E,070431.00,A,A*74
$GSENSOR,-412,1038,148
$GPRMC,070432.00,A,2730.63768,S,15255.08755,E,14.974,131.64,210420,,,A*49
$GPVTG,131.64,T,,M,14.974,N,27.732,K,A*30
$GPGGA,070432.00,2730.63768,S,15255.08755,E,1,07,1.30,36.6,M,38.4,M,,*79
$GPGSA,A,3,03,22,16,04,26,09,07,,,,,,2.25,1.30,1.84*02
$GPGSV,4,1,15,01,12,338,26,03,79,334,38,04,52,198,37,06,04,229,*78
$GPGSV,4,2,15,07,17,294,24,08,00,021,,09,26,231,27,14,02,084,14*7E
$GPGSV,4,3,15,16,54,084,41,22,52,013,40,23,38,222,40,26,37,123,43*7F
$GPGSV,4,4,15,27,04,050,,31,10,132,,50,47,313,*4D
$GPGLL,2730.63768,S,15255.08755,E,070432.00,A,A*75
$GSENSOR,-380,900,20
$GPRMC,070433.00,A,2730.64141,S,15255.08980,E,15.670,159.17,210420,,,A*44
$GPVTG,159.17,T,,M,15.670,N,29.021,K,A*3B
$GPGGA,070433.00,2730.64141,S,15255.08980,E,1,06,1.30,36.2,M,38.4,M,,*71
$GPGSA,A,3,03,22,16,04,26,07,,,,,,,2.25,1.30,1.84*0B
$GPGSV,4,1,15,01,12,338,26,03,79,334,32,04,52,198,35,06,04,229,*70
$GPGSV,4,2,15,07,17,294,31,08,00,021,,09,26,231,,14,02,084,11*7A
$GPGSV,4,3,15,16,54,084,44,22,52,013,43,23,38,222,39,26,37,123,35*76
$GPGSV,4,4,15,27,04,050,16,31,10,132,,50,47,313,*4A
$GPGLL,2730.64141,S,15255.08980,E,070433.00,A,A*78
$GSENSOR,-326,918,156
$GPRMC,070434.00,A,2730.64609,S,15255.08958,E,16.556,188.47,210420,,,A*40
$GPVTG,188.47,T,,M,16.556,N,30.662,K,A*3F
$GPGGA,070434.00,2730.64609,S,15255.08958,E,1,08,1.30,35.5,M,38.4,M,,*72
$GPGSA,A,3,03,22,16,04,26,09,07,01,,,,,2.25,1.30,1.84*03
$GPGSV,4,1,15,01,12,338,31,03,79,334,40,04,52,198,41,06,04,229,*70
$GPGSV,4,2,15,07,17,294,26,08,00,021,,09,26,231,39,14,02,084,09*7F
$GPGSV,4,3,15,16,54,084,42,22,52,013,43,23,38,222,40,26,37,123,38*73
$GPGSV,4,4,15,27,04,050,17,31,10,132,,50,47,313,*4B
$GPGLL,2730.64609,S,15255.08958,E,070434.00,A,A*71
$GSENSOR,-304,978,138
$GPRMC,070435.00,A,2730.65039,S,15255.08728,E,18.116,213.25,210420,,,A*47
$GPVTG,213.25,T,,M,18.116,N,33.551,K,A*34
$GPGGA,070435.00,2730.65039,S,15255.08728,E,1,08,1.30,35.5,M,38.4,M,,*7E
$GPGSA,A,3,03,22,16,04,26,09,07,01,,,,,2.25,1.30,1.84*03
$GPGSV,4,1,15,01,12,338,24,03,79,334,44,04,52,198,38,06,04,229,*7E
$GPGSV,4,2,15,07,17,294,32,08,00,021,,09,26,231,29,14,02,084,08*7A
$GPGSV,4,3,15,16,54,084,39,22,52,013,34,23,38,222,33,26,37,123,40*74
$GPGSV,4,4,15,27,04,050,,31,10,132,,50,47,313,*4D
$GPGLL,2730.65039,S,15255.08728,E,070435.00,A,A*7D
$GSENSOR,206,1020,186
$GPRMC,070436.00,A,2730.65483,S,15255.08364,E,19.596,217.51,210420,,,A*47
$GPVTG,217.51,T,,M,19.596,N,36.291,K,A*30
$GPGGA,070436.00,2730.65483,S,15255.08364,E,1,07,1.30,35.8,M,38.4,M,,*76
$GPGSA,A,3,03,22,16,04,26,07,01,,,,,,2.25,1.30,1.84*0A
$GPGSV,4,1,15,01,12,338,30,03,79,334,44,04,52,198,42,06,04,229,*76
$GPGSV,4,2,15,07,17,294,31,08,00,021,,09,26,231,,14,02,084,08*72
$GPGSV,4,3,15,16,54,084,39,22,52,013,41,23,38,222,42,26,37,123,36*71
$GPGSV,4,4,15,27,04,050,,31,10,132,16,50,47,313,*4A
$GPGLL,2730.65483,S,15255.08364,E,070436.00,A,A*77
$GSENSOR,372,948,176
$GPRMC,070437.00,A,2730.65992,S,15255.08018,E,21.168,209.37,210420,,,A*42
$GPVTG,209.37,T,,M,21.168,N,39.204,K,A*32
$GPGGA,070437.00,2730.65992,S,15255.08018,E,1,08,1.30,35.1,M,38.4,M,,*74
$GPGSA,A,3,03,22,16,04,26,09,07,01,,,,,2.25,1.30,1.84*03
$GPGSV,4,1,15,01,12,338,23,03,79,334,45,04,52,198,39,06,04,229,*79
$GPGSV,4,2,15,07,17,294,25,08,00,021,,09,26,231,31,14,02,084,09*74
$GPGSV,4,3,15,16,54,084,38,22,52,013,34,23,38,222,30,26,37,123,41*77
$GPGSV,4,4,15,27,04,050,16,31,10,132,,50,47,313,*4A
$GPGLL,2730.65992,S,15255.08018,E,070437.00,A,A*73
$GSENSOR,192,956,182
$GPRMC,070438.00,A,2730.66569,S,15255.07772,E,22.755,198.26,210420,,,A*42
$GPVTG,198.26,T,,M,22.755,N,42.143,K,A*3E
$GPGGA,070438.00,2730.66569,S,15255.07772,E,1,07,1.30,35.3,M,38.4,M,,*79
$GPGSA,A,3,03,22,16,04,26,07,01,,,,,,2.25,1.30,1.84*0A
$GPGSV,4,1,15,01,12,338,31,03,79,334,45,04,52,198,39,06,04,229,*7A
$GPGSV,4,2,15,07,17,294,23,08,00,021,,09,26,231,,14,02,084,07*7E
$GPGSV,4,3,15,16,54,084,39,22,52,013,38,23,38,221,35,26,37,123,37*7D
$GPGSV,4,4,15,27,04,050,17,31,10,132,,50,47,313,*4B
$GPGLL,2730.66569,S,15255.07772,E,070438.00,A,A*73
$GSENSOR,158,848,116
$GPRMC,070439.00,A,2730.67213,S,15255.07614,E,24.202,190.40,210420,,,A*40
$GPVTG,190.40,T,,M,24.202,N,44.821,K,A*3C
$GPGGA,070439.00,2730.67213,S,15255.07614,E,1,07,1.30,35.0,M,38.4,M,,*71
$GPGSA,A,3,03,22,16,04,26,07,01,,,,,,2.25,1.30,1.84*0A
$GPGSV,4,1,15,01,12,338,29,03,79,334,45,04,52,198,37,06,04,229,*7D
$GPGSV,4,2,15,07,17,294,21,08,00,021,,09,26,231,22,14,02,084,07*7C
$GPGSV,4,3,15,16,54,084,38,22,52,013,40,23,38,221,32,26,37,123,31*72
$GPGSV,4,4,15,27,04,050,16,31,10,132,23,50,47,313,*4B
$GPGLL,2730.67213,S,15255.07614,E,070439.00,A,A*78
$GSENSOR,154,918,164
$GPRMC,070440.00,A,2730.67899,S,15255.07531,E,25.234,185.37,210420,,,A*42
$GPVTG,185.37,T,,M,25.234,N,46.733,K,A*32
$GPGGA,070440.00,2730.67899,S,15255.07531,E,1,07,1.30,35.2,M,38.4,M,,*71
$GPGSA,A,3,03,22,16,04,26,07,01,,,,,,2.25,1.30,1.84*0A
$GPGSV,4,1,15,01,12,338,21,03,79,334,45,04,52,198,43,06,04,229,*76
$GPGSV,4,2,15,07,17,294,29,08,00,021,,09,26,231,23,14,02,084,07*75
$GPGSV,4,3,15,16,54,084,39,22,52,013,42,23,38,221,32,26,37,123,31*71
$GPGSV,4,4,15,27,04,050,16,31,10,132,,50,47,313,*4A
$GPGLL,2730.67899,S,15255.07531,E,070440.00,A,A*7A
$GSENSOR,26,1018,162
$GPRMC,070441.00,A,2730.68619,S,15255.07463,E,26.219,185.06,210420,,,A*42
$GPVTG,185.06,T,,M,26.219,N,48.557,K,A*32
$GPGGA,070441.00,2730.68619,S,15255.07463,E,1,08,1.30,35.3,M,38.4,M,,*71
$GPGSA,A,3,03,22,16,04,26,09,07,01,,,,,2.25,1.30,1.84*03
$GPGSV,4,1,15,01,12,338,21,03,79,334,45,04,52,198,42,06,04,229,*77
$GPGSV,4,2,15,07,17,294,21,08,00,021,,09,26,231,32,14,02,084,07*7D
$GPGSV,4,3,15,16,54,084,36,22,52,013,42,23,38,221,37,26,37,124,39*74
$GPGSV,4,4,15,27,04,050,20,31,10,132,24,50,47,313,*49
$GPGLL,2730.68619,S,15255.07463,E,070441.00,A,A*74
$GSENSOR,-12,868,166
$GPRMC,070442.00,A,2730.69368,S,15255.07395,E,27.217,184.27,210420,,,A*40
$GPVTG,184.27,T,,M,27.217,N,50.406,K,A*33
$GPGGA,070442.00,2730.69368,S,15255.07395,E,1,06,1.30,35.7,M,38.4,M,,*74
$GPGSA,A,3,03,22,16,04,26,07,,,,,,,2.25,1.30,1.84*0B
$GPGSV,4,1,15,01,12,338,21,03,79,334,46,04,52,198,43,06,04,229,*75
$GPGSV,4,2,15,07,17,294,22,08,00,021,,09,26,231,,14,02,084,07*7F
$GPGSV,4,3,15,16,54,084,39,22,52,013,43,23,38,221,35,26,37,124,38*79
$GPGSV,4,4,15,27,04,050,20,31,10,132,,50,47,313,*4F
$GPGLL,2730.69368,S,15255.07395,E,070442.00,A,A*7B
$GSENSOR,58,1002,280
$GPRMC,070443.00,A,2730.70142,S,15255.07319,E,28.079,185.99,210420,,,A*46
$GPVTG,185.99,T,,M,28.079,N,52.002,K,A*30
$GPGGA,070443.00,2730.70142,S,15255.07319,E,1,07,1.49,36.4,M,38.4,M,,*7C
$GPGSA,A,3,03,22,16,04,26,09,07,,,,,,3.42,1.49,3.07*05
$GPGSV,4,1,15,01,12,338,21,03,79,334,46,04,52,198,41,06,04,229,*77
$GPGSV,4,2,15,07,17,294,23,08,00,021,,09,26,231,31,14,02,084,07*7C
$GPGSV,4,3,15,16,54,084,39,22,52,013,44,23,38,221,29,26,37,124,34*7F
$GPGSV,4,4,15,27,04,050,20,31,10,132,24,50,47,313,*49
$GPGLL,2730.70142,S,15255.07319,E,070443.00,A,A*7C
$GSENSOR,68,968,212
$GPRMC,070444.00,A,2730.70936,S,15255.07240,E,28.804,185.85,210420,,,A*48
$GPVTG,185.85,T,,M,28.804,N,53.345,K,A*3E
$GPGGA,070444.00,2730.70936,S,15255.07240,E,1,07,1.22,37.1,M,38.4,M,,*74
$GPGSA,A,3,03,22,16,04,26,07,31,,,,,,1.78,1.22,1.30*0E
$GPGSV,4,1,15,01,12,338,19,03,79,334,46,04,52,198,38,06,04,229,*72
$GPGSV,4,2,15,07,17,294,29,08,00,021,,09,26,231,33,14,02,084,08*7B
$GPGSV,4,3,15,16,54,084,43,22,52,013,45,23,38,221,34,26,37,124,33*78
$GPGSV,4,4,15,27,04,050,18,31,10,132,24,50,47,313,*42
$GPGLL,2730.70936,S,15255.07240,E,070444.00,A,A*7D
$GSENSOR,84,954,88
$GPRMC,070445.00,A,2730.71742,S,15255.07165,E,29.098,184.47,210420,,,A*42
$GPVTG,184.47,T,,M,29.098,N,53.890,K,A*3E
$GPGGA,070445.00,2730.71742,S,15255.07165,E,1,07,1.22,37.8,M,38.4,M,,*74
$GPGSA,A,3,03,22,16,04,26,07,31,,,,,,1.78,1.22,1.30*0E
$GPGSV,4,1,15,01,12,338,,03,79,334,47,04,52,198,43,06,04,229,*77
$GPGSV,4,2,15,07,17,294,29,08,00,021,,09,26,231,21,14,02,084,08*78
$GPGSV,4,3,15,16,54,084,43,22,52,013,44,23,38,221,36,26,37,124,40*7F
$GPGSV,4,4,15,27,04,050,17,31,10,132,25,50,47,313,*4C
$GPGLL,2730.71742,S,15255.07165,E,070445.00,A,A*74
$GSENSOR,150,930,270
$GPRMC,070446.00,A,2730.72556,S,15255.07148,E,29.018,180.26,210420,,,A*41
$GPVTG,180.26,T,,M,29.018,N,53.741,K,A*36
$GPGGA,070446.00,2730.72556,S,15255.07148,E,1,08,1.48,38.4,M,38.4,M,,*7C
$GPGSA,A,3,03,22,16,04,26,09,07,31,,,,,2.41,1.48,1.90*08
$GPGSV,4,1,15,01,12,338,19,03,79,334,47,04,52,198,39,06,04,229,*72
$GPGSV,4,2,15,07,17,294,22,08,00,021,,09,26,231,30,14,02,084,08*73
$GPGSV,4,3,15,16,54,084,40,22,52,013,46,23,38,221,28,26,37,124,38*7E
$GPGSV,4,4,15,27,04,050,19,31,10,132,26,50,47,313,*41
$GPGLL,2730.72556,S,15255.07148,E,070446.00,A,A*7C
$GSENSOR,222,1000,46
$GPRMC,070447.00,A,2730.73353,S,15255.07222,E,28.439,173.59,210420,,,A*4F
$GPVTG,173.59,T,,M,28.439,N,52.669,K,A*3E
$GPGGA,070447.00,2730.73353,S,15255.07222,E,1,07,1.22,39.1,M,38.4,M,,*77
$GPGSA,A,3,03,22,16,04,26,07,31,,,,,,1.78,1.22,1.30*0E
$GPGSV,4,1,15,01,12,338,21,03,79,334,40,04,52,198,34,06,04,229,*73
$GPGSV,4,2,15,07,17,294,23,08,00,021,,09,26,231,,14,02,084,08*71
$GPGSV,4,3,15,16,54,084,39,22,52,013,46,23,38,221,32,26,37,124,37*74
$GPGSV,4,4,15,27,04,050,20,31,10,132,25,50,47,313,*48
$GPGLL,2730.73353,S,15255.07222,E,070447.00,A,A*70
$GSENSOR,224,968,158
$GPRMC,070448.00,A,2730.74104,S,15255.07427,E,27.484,164.01,210420,,,A*46
$GPVTG,164.01,T,,M,27.484,N,50.900,K,A*3E
$GPGGA,070448.00,2730.74104,S,15255.07427,E,1,09,1.22,39.9,M,38.4,M,,*7A
$GPGSA,A,3,03,22,16,04,26,09,07,01,31,,,,1.78,1.22,1.30*06
$GPGSV,4,1,15,01,12,338,23,03,79,334,42,04,52,198,39,06,04,229,*7E
$GPGSV,4,2,15,07,17,294,31,08,00,021,,09,26,231,31,14,02,084,08*70
$GPGSV,4,3,15,16,54,084,41,22,52,013,42,23,38,221,37,26,37,124,26*7A
$GPGSV,4,4,15,27,04,050,18,31,10,132,31,50,47,313,*46
$GPGLL,2730.74104,S,15255.07427,E,070448.00,A,A*7B
$GSENSOR,270,916,-34
$GPRMC,070449.00,A,2730.74793,S,15255.07763,E,26.862,153.73,210420,,,A*48
